"site","site_name","latitude","longitude","elevation","country","country_iso_code","site_type","site_area","date_start","date_end","network","eu_code","eoi_code","observation_count","data_source"
"ad0942a","Fixa",42.5096939994651,1.539138,1080,"andorra","AD","background","urban",2011-12-31 23:00:00,2022-06-14 01:00:00,"NET-AD001A","STA-AD0942A","AD0942A",543964,"aqer:e1a; aqer:e2a"
"ad0944a","Fixa oz",42.516943999465,1.56525,1637,"andorra","AD","background","rural",2011-12-31 23:00:00,2022-06-14 00:00:00,"NET-AD001A","STA-AD0944A","AD0944A",80519,"aqer:e1a; aqer:e2a"
"ad0945a","Estacional oz Envalira",42.534882999465,1.716986,2515,"andorra","AD","background","rural",2012-04-26 10:00:00,2022-06-14 00:00:00,"NET-AD001A","STA-AD0945A","AD0945A",33483,"aqer:e1a; aqer:e2a"
"al0201a","Tirana Center",41.3302689994674,19.821772,162,"albania","AL","traffic","urban",2011-01-01 00:00:00,2012-12-31 06:00:00,"NET-AL002A","STA-AL0201A","STA-AL0201A",145816,"airbase"
"al0202a","Tirana IPH",41.3455999994673,19.851667,207,"albania","AL","traffic","suburban",2011-01-01 00:00:00,2012-12-31 06:00:00,"NET-AL002A","STA-AL0202A","STA-AL0202A",119022,"airbase"
"al0203a","Korca",40.62593,20.78018,848,"albania","AL","background","suburban",2014-01-08 18:00:00,2019-04-13 11:00:00,"NET-AL001A","STA-AL0203A","AL0203A",230523,"aqer:e1a"
"al0204a","Vlora",40.40309,19.4862,25,"albania","AL","background","urban",2014-01-01 00:00:00,2019-10-02 02:00:00,"NET-AL001A","STA-AL0204A","AL0204A",223266,"aqer:e1a"
"al0205a","Durres",41.3199,19.4492,1,"albania","AL","traffic","urban",2014-03-31 15:00:00,2019-09-07 06:00:00,"NET-AL001A","STA-AL0205A","AL0205A",218062,"aqer:e1a"
"al0206a","Shkoder",42.3139,19.52342,13,"albania","AL","background","urban",2014-02-19 21:00:00,2019-07-25 08:00:00,"NET-AL001A","STA-AL0206A","AL0206A",179583,"aqer:e1a"
"al0207a","Elbasan",41.11098,20.0817,150,"albania","AL","traffic","urban",2014-04-09 12:00:00,2019-06-02 20:00:00,"NET-AL001A","STA-AL0207A","AL0207A",172141,"aqer:e1a"
"at0ach1","Achenkirch - Am Zenzfeld",47.503056,11.70028,463,"austria","AT","background","rural",1993-04-01 00:00:00,2003-09-17 15:00:00,NA,NA,NA,182042,"airbase"
"at0enk1","Enzenkirchen im Sauwald",48.391719999467,13.67114,525,"austria","AT","background","rural_regional",1998-06-03 00:00:00,2022-06-13 17:00:00,"NET.10","STA.10.ENK1","AT0ENK1",1309223,"airbase; aqer:e1a; aqer:e2a"
"at0hbg1","Hochburg-Ach",48.148056,12.866947,463,"austria","AT","background","rural",1995-01-01 00:00:00,1998-05-26 12:00:00,NA,NA,NA,115184,"airbase"
"at0ill1","Illmitz am Neusiedler See",47.7702799994658,16.76639,117,"austria","AT","background","rural_regional",1990-01-01 00:00:00,2022-06-13 17:00:00,"NET.10","STA.10.ILL1","AT0ILL1",1744273,"airbase; aqer:e1a; aqer:e2a"
"at0ill2","Illmitz",47.7702799994658,16.76639,117,"austria","AT","background","rural_regional",2016-12-31 23:00:00,2019-12-31 22:00:00,"NET.10","STA.10.ILL2","AT0ILL2",23253,"aqer:e1a"
"at0klh1","Klöch bei Bad Radkersburg",46.7674999994643,15.956111,415,"austria","AT","background","rural_regional",2012-12-31 23:00:00,2022-06-13 17:00:00,"NET.10","STA.10.KLH1","AT0KLH1",287197,"aqer:e1a; aqer:e2a"
"at0pil1","Pillersdorf bei Retz",48.7211111094678,15.94222222,315,"austria","AT","background","rural_regional",1992-02-27 00:00:00,2022-06-13 17:00:00,"NET.10","STA.10.PIL1","AT0PIL1",1393702,"airbase; aqer:e1a; aqer:e2a"
"at0sig1","St. Sigmund im Sellrain - Gleirschalm",47.189167,11.099736,1666,"austria","AT","background","rural",1999-10-05 00:00:00,2008-10-22 15:00:00,NA,NA,NA,476459,"airbase"
"at0son1","Sonnblick",47.0541666994646,12.957777778,3106,"austria","AT","background","rural_remote",1990-01-01 00:00:00,2022-06-13 17:00:00,"NET.10","STA.10.SON1","AT0SON1",878376,"airbase; aqer:e1a; aqer:e2a"
"at0sto1","Stolzalpe bei Murau",47.129166,14.203892,1302,"austria","AT","background","rural",1992-01-01 00:00:00,2006-04-25 13:00:00,NA,NA,NA,571343,"airbase"
"at0vor1","Vorhegg bei Kötschach-Mauthen",46.6786111105753,12.9744444444444,1010,"austria","AT","background","rural_regional",1991-01-01 00:00:00,2022-06-13 17:00:00,"NET.10","STA.10.VOR1","AT0VOR1",1850102,"airbase; aqer:e1a; aqer:e2a"
"at0zil1","Ried im Zillertal",47.306667,11.863889,555,"austria","AT","background","rural",2009-01-01 00:00:00,2011-12-31 23:00:00,NA,NA,NA,134541,"airbase"
"at0zoe2","Zöbelboden im Reichraminger Hintergebirge - Wildwiese",47.8386110994659,14.441388889,899,"austria","AT","background","rural_remote",1996-01-01 00:00:00,2022-06-13 17:00:00,"NET.10","STA.10.ZOE2","AT0ZOE2",1319940,"airbase; aqer:e1a; aqer:e2a"
"at10001","Eisenstadt Laschoberstraße",47.8401137994659,16.52617,165,"austria","AT","background","suburban",1994-01-01 00:00:00,2022-06-13 17:00:00,"NET.01","STA.01.0001","AT10001",1610865,"airbase; aqer:e1a; aqer:e2a"
"at10002","Oberschützen",47.339925999465,16.207863,344,"austria","AT","background","rural",1994-01-01 00:00:00,2022-06-13 17:00:00,"NET.01","STA.01.0002","AT10002",1131045,"airbase; aqer:e1a; aqer:e2a"
"at10003","Kittsee",48.1091531994664,17.0703159,136,"austria","AT","background","suburban",2000-01-01 00:00:00,2022-06-13 17:00:00,"NET.01","STA.01.0003","AT10003",1099831,"airbase; aqer:e1a; aqer:e2a"
"at10007","Mannersdorf an der Rabnitz",47.4652777774653,16.6472222222,205,"austria","AT","background","rural",2011-04-07 00:00:00,2012-12-31 23:00:00,"NET.01","STA.01.0007","AT10007",30425,"airbase"
"at10008",NA,48.0009719994662,16.862967,180,"austria","AT","background","rural",NA,NA,"NET.01","STA.01.0008","AT10008",NA,"aqer:e1a"
"at10035","Jennersdorf Schule",46.9420359994645,16.148272,240,"austria","AT","background","suburban",2016-04-19 11:00:00,2018-07-04 22:00:00,"NET.01","STA.01.0035","AT10035",53435,"aqer:e1a"
"at11002","Oberwart Brunnenfeld",47.304165,16.193054,330,"austria","AT","background","rural",1993-07-01 00:00:00,2008-10-21 00:00:00,NA,NA,NA,576434,"airbase"
"at11007","Lutzmannsburg",47.4652777774653,16.6472222222,205,"austria","AT","background","rural",2016-11-21 14:00:00,2018-09-02 22:00:00,"NET.01","STA.01.1007","AT11007",28950,"aqer:e1a"
"at20444","Arnoldstein Kugi",46.554199999464,13.70153,570,"austria","AT","industrial","rural",2001-01-01 00:00:00,2019-11-30 23:00:00,"NET.02","STA.02.444","AT20444",8553,"airbase; aqer:e1a"
"at2aut1","Rennweg A10",47.026944,13.603889,1160,"austria","AT","traffic","rural",2003-01-01 00:00:00,2011-12-31 23:00:00,NA,NA,NA,346392,"airbase"
"at2f101","Soboth Forsthaus",46.675556,15.046123,1080,"austria","AT","background","rural",2001-01-01 00:00:00,2009-12-31 23:00:00,NA,NA,NA,462098,"airbase"
"at2f103","Klagenfurt A2 Nordumfahrung 2",46.6528499994641,14.26625,455,"austria","AT","traffic","suburban",2016-12-31 23:00:00,2022-05-24 07:00:00,"NET.02","STA.02.F103","AT2F103",44471,"aqer:e1a; aqer:e2a"
"at2f202","Klein St. Paul - Pemberg",46.8428299994644,14.52998,810,"austria","AT","industrial","rural",1996-01-02 00:00:00,2022-05-24 07:00:00,"NET.02","STA.02.F202","AT2F202",1295760,"airbase; aqer:e1a; aqer:e2a"
"at2fe13","Feldkirchen Milesistrasse",46.727501,14.090838,550,"austria","AT","traffic","rural",1996-01-01 00:00:00,1998-12-31 23:00:00,NA,NA,NA,134713,"airbase"
"at2he19","Hermagor Gailtalstrasse",46.624722,13.373061,600,"austria","AT","traffic","rural",1993-01-01 00:00:00,2000-12-31 23:00:00,NA,NA,NA,311746,"airbase"
"at2ka11","Klagenfurt Koschatstrasse",46.626111,14.298347,440,"austria","AT","traffic","urban",1991-01-01 00:00:00,2010-12-31 23:00:00,NA,NA,NA,1396252,"airbase"
"at2ka21","Klagenfurt Völkermarkter Straße",46.6255599994641,14.31806,445,"austria","AT","traffic","urban",1994-01-01 00:00:00,2022-05-24 07:00:00,"NET.02","STA.02.KA21","AT2KA21",1266774,"airbase; aqer:e1a; aqer:e2a"
"at2ka41","Klagenfurt Kreuzbergl",46.6293599994641,14.28931,550,"austria","AT","background","suburban",1991-06-03 00:00:00,2022-05-24 07:00:00,"NET.02","STA.02.KA41","AT2KA41",456913,"airbase; aqer:e1a; aqer:e2a"
"at2ka61","Klagenfurt A2 Nordumfahrung",46.6524999994641,14.2661111111111,455,"austria","AT","traffic","suburban",2008-05-01 00:00:00,2022-05-24 07:00:00,"NET.02","STA.02.KA61","AT2KA61",223889,"airbase; aqer:e1a; aqer:e2a"
"at2ka71","Klagenfurt Sterneckstraße",46.6266166661308,14.2991444444444,445,"austria","AT","background","urban",2011-01-01 00:00:00,2022-05-24 07:00:00,"NET.02","STA.02.KA71","AT2KA71",622053,"airbase; aqer:e1a; aqer:e2a"
"at2kl17","Ferlach",46.529167,14.301683,460,"austria","AT","background","rural",1993-01-01 00:00:00,2000-12-31 23:00:00,NA,NA,NA,291921,"airbase"
"at2m121","Arnoldstein Gailitz Waldsiedlungsstraße",46.558899999464,13.705,574,"austria","AT","industrial","rural",2001-01-01 00:00:00,2022-05-24 07:00:00,"NET.02","STA.02.M121","AT2M121",1085349,"airbase; aqer:e1a; aqer:e2a"
"at2m226","Ebenthal Zell",46.6102777772418,14.3983333333333,420,"austria","AT","background","rural",2007-01-02 00:00:00,2022-05-24 07:00:00,"NET.02","STA.02.M226","AT2M226",254552,"airbase; aqer:e1a; aqer:e2a"
"at2m611","St. Veit an der Glan - Glandorf",46.7605555554642,14.379444444,470,"austria","AT","background","suburban",2019-12-11 10:00:00,2021-04-21 09:00:00,"NET.02","STA.02.M611","AT2M611",8923,"aqer:e1a; aqer:e2a"
"at2sp10","Obervellach Schulzentrum",46.9349999994645,13.194533,686,"austria","AT","background","rural",1991-08-20 00:00:00,2022-05-24 07:00:00,"NET.02","STA.02.SP10","AT2SP10",1787714,"airbase; aqer:e1a; aqer:e2a"
"at2sp18","Spittal a. d. Drau Oktoberstraße",46.8013888883532,13.4938888888889,560,"austria","AT","background","urban",1991-08-22 00:00:00,2022-05-24 07:00:00,"NET.02","STA.02.SP18","AT2SP18",1493881,"airbase; aqer:e1a; aqer:e2a"
"at2sp20","Oberdrauburg Bundesstrasse",46.748055,12.972783,612,"austria","AT","traffic","rural",1992-03-28 00:00:00,2011-12-31 23:00:00,NA,NA,NA,492253,"airbase"
"at2sv14","St. Veit a.d.Glan Oktoberplatz",46.765835,14.355003,475,"austria","AT","traffic","urban",1991-01-21 00:00:00,2007-12-31 23:00:00,NA,NA,NA,653299,"airbase"
"at2sv24","St. Veit a. d. Glan Hauptbahnhof",46.7711109994643,14.3658333333333,480,"austria","AT","background","suburban",2008-03-20 00:00:00,2016-12-31 23:00:00,"NET.02","STA.02.SV24","AT2SV24",165384,"airbase; aqer:e1a"
"at2trei","Treibach Werksküche",46.8633333327977,14.4583333333333,605,"austria","AT","industrial","rural_regional",2007-01-21 00:00:00,2019-11-30 23:00:00,"NET.02","STA.02.TREI","AT2TREI",2008,"airbase; aqer:e1a"
"at2vi12","Villach Tirolerbrücke",46.6124999994641,13.841389,490,"austria","AT","traffic","urban",1991-01-01 00:00:00,2022-05-24 07:00:00,"NET.02","STA.02.VI12","AT2VI12",1676629,"airbase; aqer:e1a; aqer:e2a"
"at2vk01","Völkermarkt Spielplatz",46.6628194439086,14.6322805555556,460,"austria","AT","background","suburban",2015-12-31 23:00:00,2018-10-31 23:00:00,"NET.02","STA.02.VK01","AT2VK01",23,"aqer:e1a"
"at2vk16","Völkermarkt Umfahrungsstrasse",46.663891,14.63307,460,"austria","AT","traffic","rural",1993-01-01 00:00:00,2000-12-31 23:00:00,NA,NA,NA,336250,"airbase"
"at2vk26","Bleiburg Koschatstrasse Schule",46.585556,14.795011,480,"austria","AT","background","rural",1991-10-20 00:00:00,2011-12-31 23:00:00,NA,NA,NA,689150,"airbase"
"at2vl12","Fürnitz Bahnhofstrasse",46.563889,13.811122,515,"austria","AT","industrial","rural",1993-01-01 00:00:00,2000-12-31 23:00:00,NA,NA,NA,311303,"airbase"
"at2vl22","Arnoldstein Waldsiedlung",46.55722,13.7089,580,"austria","AT","industrial","rural",1994-05-01 00:00:00,2009-12-31 00:00:00,NA,NA,NA,133756,"airbase"
"at2vl52","Gerlitzen Steinturm",46.6953999994642,13.91449,1897,"austria","AT","background","rural_remote",1991-06-03 00:00:00,2022-05-24 07:00:00,"NET.02","STA.02.VL52","AT2VL52",450283,"airbase; aqer:e1a; aqer:e2a"
"at2vl62","Arnoldstein Hohenthurn",46.558056,13.666947,670,"austria","AT","industrial","rural",1994-06-01 00:00:00,2009-12-31 00:00:00,NA,NA,NA,134212,"airbase"
"at2wo15","Wolfsberg Hauptschule",46.8349999994643,14.8436111111111,460,"austria","AT","industrial","urban",1991-01-01 00:00:00,2022-05-24 07:00:00,"NET.02","STA.02.WO15","AT2WO15",2188821,"airbase; aqer:e1a; aqer:e2a"
"at2wo25","St. Andrä i. L. Volksschule",46.7638889994642,14.8222222,430,"austria","AT","background","suburban",1990-10-15 00:00:00,2020-02-12 07:00:00,"NET.02","STA.02.WO25","AT2WO25",1023460,"airbase; aqer:e1a; aqer:e2a"
"at2wo35","St. Georgen im Lavanttal - Herzogberg",46.7083329994642,14.891667,540,"austria","AT","background","rural",1991-01-01 00:00:00,2022-05-24 07:00:00,"NET.02","STA.02.WO35","AT2WO35",1554165,"airbase; aqer:e1a; aqer:e2a"
"at30033","Litschau",48.9559999994684,15.039,560,"austria","AT","background","rural_regional",2017-12-31 23:00:00,2018-10-31 23:00:00,"NET.03","STA.03.33","AT30033",11,"aqer:e1a"
"at30065","Purkersdorf,Tullnerbachstraße",48.1958349994666,16.143612,260,"austria","AT","background","suburban",2003-06-01 00:00:00,2022-06-13 17:00:00,"NET.03","STA.03.0065","AT30065",720068,"airbase; aqer:e1a; aqer:e2a"
"at30101","Amstetten",48.1202777794665,14.878333,270,"austria","AT","background","urban",1990-01-01 00:00:00,2022-06-13 17:00:00,"NET.03","STA.03.0101","AT30101",1247479,"airbase; aqer:e1a; aqer:e2a"
"at30102","St. Valentin Stein",48.226665,14.562789,242,"austria","AT","background","rural",1990-01-01 00:00:00,2005-12-21 21:00:00,NA,NA,NA,662505,"airbase"
"at30103","Kollmitzberg",48.1797222194666,14.86666667,465,"austria","AT","background","rural",1988-01-01 00:00:00,2022-06-13 17:00:00,"NET.03","STA.03.0103","AT30103",1185009,"airbase; aqer:e1a; aqer:e2a"
"at30104","St. Valentin,Westautobahn",48.1922299994666,14.51954,265,"austria","AT","traffic","rural",2006-01-04 00:00:00,2022-06-13 17:00:00,"NET.03","STA.03.0104","AT30104",621561,"airbase; aqer:e1a; aqer:e2a"
"at30201","Bad Vöslau,Gainfarn",47.9592499994661,16.2057,265,"austria","AT","background","suburban",1993-01-01 00:00:00,2022-06-13 17:00:00,"NET.03","STA.03.0201","AT30201",1283374,"airbase; aqer:e1a; aqer:e2a"
"at30202","Forsthof am Schöpfl",48.1061110994664,15.919444444,581,"austria","AT","background","rural_regional",1988-02-01 00:00:00,2022-06-13 17:00:00,"NET.03","STA.03.0202","AT30202",1521434,"airbase; aqer:e1a; aqer:e2a"
"at30301","Hainburg Krankenhaus",48.1441999994665,16.95787,180,"austria","AT","background","suburban",1988-01-01 00:00:00,2022-06-13 17:00:00,"NET.03","STA.03.0301","AT30301",1696617,"airbase; aqer:e1a; aqer:e2a"
"at30302","Stixneusiedl",48.0502779994663,16.675278,235,"austria","AT","background","rural",1990-01-01 00:00:00,2022-06-13 17:00:00,"NET.03","STA.03.0302","AT30302",1638412,"airbase; aqer:e1a; aqer:e2a"
"at30401","Gänserndorf Baumschulweg",48.3347199994669,16.729445,161,"austria","AT","background","rural",1990-01-01 00:00:00,2022-06-13 17:00:00,"NET.03","STA.03.0401","AT30401",1603160,"airbase; aqer:e1a; aqer:e2a"
"at30402","Deutsch Wagram",48.298332,16.559174,160,"austria","AT","background","rural",1993-03-26 00:00:00,2002-06-27 11:00:00,NA,NA,NA,267461,"airbase"
"at30403","Wolkersdorf",48.3922222194671,16.522666622,260,"austria","AT","background","rural",1989-03-09 00:00:00,2022-06-13 17:00:00,"NET.03","STA.03.0403","AT30403",1367338,"airbase; aqer:e1a; aqer:e2a"
"at30406","Großenzersdorf Friedhof",48.195,16.55056,155,"austria","AT","background","rural",1990-02-03 00:00:00,2004-05-10 07:00:00,NA,NA,NA,371699,"airbase"
"at30407","Glinzendorf im Marchfeld",48.2308333324667,16.63638889,150,"austria","AT","background","rural",2004-06-25 00:00:00,2022-06-13 17:00:00,"NET.03","STA.03.0407","AT30407",639267,"airbase; aqer:e1a; aqer:e2a"
"at30502","Heidenreichstein Thaures",48.8786110994682,15.04666667,570,"austria","AT","background","rural_regional",1990-01-01 00:00:00,2022-06-13 17:00:00,"NET.03","STA.03.0502","AT30502",1628212,"airbase; aqer:e1a; aqer:e2a"
"at30599","Klosterneuburg Bahnhof Klosterneuburg-Kierling",48.3082222194669,16.3279444,170,"austria","AT","traffic","suburban",2006-01-01 00:00:00,2022-06-13 17:00:00,"NET.03","STA.03.0599","AT30599",370727,"airbase; aqer:e1a; aqer:e2a"
"at30601","Klosterneuburg Wisentgasse (Friedhof)",48.3024599994669,16.31395,260,"austria","AT","background","suburban",1990-01-01 00:00:00,2022-06-13 17:00:00,"NET.03","STA.03.0601","AT30601",1493369,"airbase; aqer:e1a; aqer:e2a"
"at30602","Fischamend",48.109444,16.627232,179,"austria","AT","background","rural",1990-01-01 00:00:00,2002-09-05 07:00:00,NA,NA,NA,310546,"airbase"
"at30603","Himberg,Alter Markt",48.0856999994664,16.4311,172,"austria","AT","background","suburban",1993-02-13 00:00:00,2022-06-13 17:00:00,"NET.03","STA.03.0603","AT30603",716351,"airbase; aqer:e1a; aqer:e2a"
"at30701","Ziersdorf",48.5288888883562,15.9427777777778,230,"austria","AT","background","rural_regional",2004-06-11 00:00:00,2022-06-13 17:00:00,"NET.03","STA.03.0701","AT30701",342926,"airbase; aqer:e1a; aqer:e2a"
"at30801","Irnfritz - Rothweinsdorf",48.7242099994678,15.49842,556,"austria","AT","background","rural_regional",1990-01-01 00:00:00,2022-06-13 17:00:00,"NET.03","STA.03.0801","AT30801",727448,"airbase; aqer:e1a; aqer:e2a"
"at30901","Korneuburg",48.349998,16.334723,170,"austria","AT","background","urban",1990-01-01 00:00:00,2002-06-14 07:00:00,NA,NA,NA,441513,"airbase"
"at30902","Stockerau,Rudolf Diesel-Straße",48.385276999467,16.182222,175,"austria","AT","traffic","suburban",2005-10-17 00:00:00,2022-06-13 17:00:00,"NET.03","STA.03.0902","AT30902",531560,"airbase; aqer:e1a; aqer:e2a"
"at30903","Langenzersdorf",48.303055,16.361389,160,"austria","AT","background","rural",1993-03-26 00:00:00,2001-12-31 23:00:00,NA,NA,NA,404339,"airbase"
"at30992","Stockerau Schulweg",48.388889,16.212223,170,"austria","AT","background","suburban",1990-01-01 00:00:00,2005-10-31 00:00:00,NA,NA,NA,723848,"airbase"
"at31102","Annaberg,Joachimsberg",47.861944439466,15.32194444,880,"austria","AT","background","rural_regional",1991-03-01 00:00:00,2022-06-13 17:00:00,"NET.03","STA.03.1102","AT31102",464397,"airbase; aqer:e1a; aqer:e2a"
"at31204","Pöchlarn",48.2133333327967,15.197222222222,216,"austria","AT","background","rural",1999-05-05 00:00:00,2022-06-13 17:00:00,"NET.03","STA.03.1204","AT31204",875555,"airbase; aqer:e1a; aqer:e2a"
"at31301","Mistelbach Steinhübel",48.5786109994675,16.580556,250,"austria","AT","background","rural",1990-01-01 00:00:00,2022-06-13 17:00:00,"NET.03","STA.03.1301","AT31301",901441,"airbase; aqer:e1a; aqer:e2a"
"at31401","Mödling Bachgasse",48.0861110994664,16.3022222,215,"austria","AT","background","suburban",1990-01-01 00:00:00,2022-06-13 17:00:00,"NET.03","STA.03.1401","AT31401",2059013,"airbase; aqer:e1a; aqer:e2a"
"at31402","Vösendorf Kindbergstraße",48.1249999994665,16.331388,194,"austria","AT","traffic","suburban",1991-06-01 00:00:00,2022-06-13 17:00:00,"NET.03","STA.03.1402","AT31402",1311363,"airbase; aqer:e1a; aqer:e2a"
"at31403","Brunn am Gebirge",48.110832,16.283333,288,"austria","AT","background","suburban",1993-03-29 00:00:00,2005-12-31 00:00:00,NA,NA,NA,537626,"airbase"
"at31406","Biedermannsdorf Mühlengasse",48.0833333327997,16.3372222222222,188,"austria","AT","traffic","suburban",2007-03-01 00:00:00,2022-06-13 17:00:00,"NET.03","STA.03.1406","AT31406",341680,"airbase; aqer:e1a; aqer:e2a"
"at31413","Wiener Neudorf Hauptstraße",48.0842999994664,16.329,210,"austria","AT","background","suburban",2008-06-04 00:00:00,2022-06-13 17:00:00,"NET.03","STA.03.1413","AT31413",399730,"airbase; aqer:e1a; aqer:e2a"
"at31496","Biedermannsdorf Sportplatz",48.081112,16.348612,180,"austria","AT","background","rural",1996-06-01 00:00:00,2005-01-01 00:00:00,NA,NA,NA,400447,"airbase"
"at31501","Ternitz,Grabengasse",47.716667,16.044456,380,"austria","AT","background","urban",1990-01-01 00:00:00,2011-09-19 14:00:00,NA,NA,NA,651374,"airbase"
"at31502","Payerbach - Kreuzberg",47.6702777794656,15.860277778,890,"austria","AT","background","rural",1993-06-01 00:00:00,2022-06-13 17:00:00,"NET.03","STA.03.1502","AT31502",1300965,"airbase; aqer:e1a; aqer:e2a"
"at31701","Dunkelsteinerwald - Unterbergern",48.370277999467,15.54583333,320,"austria","AT","background","rural",1990-01-01 00:00:00,2022-06-13 17:00:00,"NET.03","STA.03.1701","AT31701",1479241,"airbase; aqer:e1a; aqer:e2a"
"at31703","Traismauer",48.353333329467,15.74694444,190,"austria","AT","background","suburban",1990-01-01 00:00:00,2020-12-30 17:00:00,"NET.03","STA.03.1703","AT31703",1028760,"airbase; aqer:e1a; aqer:e2a"
"at31901","Tulln Leopoldgasse",48.3294449994669,16.0625,178,"austria","AT","background","suburban",2007-06-05 00:00:00,2022-06-13 17:00:00,"NET.03","STA.03.1901","AT31901",714247,"airbase; aqer:e1a; aqer:e2a"
"at31902","Zwentendorf im Tullnerfeld",48.331111110578,15.9036111111111,200,"austria","AT","industrial","rural",1983-01-01 00:00:00,2022-06-13 17:00:00,"NET.03","STA.03.1902","AT31902",1097153,"airbase; aqer:e1a; aqer:e2a"
"at31903","Trasdorf im Tullnerfeld",48.331667,15.859731,192,"austria","AT","background","rural",1990-01-01 00:00:00,2022-06-13 17:00:00,NA,NA,NA,811299,"airbase; aqer:e2a"
"at31904","Streithofen im Tullnerfeld",48.2763888883668,15.935,220,"austria","AT","background","rural",1983-01-01 01:00:00,2020-12-04 08:00:00,"NET.03","STA.03.1904","AT31904",1708619,"airbase; aqer:e1a; aqer:e2a"
"at31905","Neusiedl im Tullnerfeld",48.322222,15.966667,182,"austria","AT","background","rural",1990-01-01 00:00:00,2022-06-13 17:00:00,NA,NA,NA,876707,"airbase; aqer:e2a"
"at31906","Tulbinger Kogel",48.282222,16.148625,495,"austria","AT","background","rural",1990-01-01 00:00:00,2011-12-31 23:00:00,NA,NA,NA,728262,"airbase"
"at31991","Tulln Wilhelmstraße",48.329998,16.057222,190,"austria","AT","industrial","urban",1990-01-01 00:00:00,2007-06-27 23:00:00,NA,NA,NA,148276,"airbase"
"at32101","Wiesmath",47.6083333294655,16.29305556,738,"austria","AT","background","rural_regional",1993-01-01 00:00:00,2022-06-13 17:00:00,"NET.03","STA.03.2101","AT32101",429698,"airbase; aqer:e1a; aqer:e2a"
"at32201","Großgöttfritz",48.530834,15.166667,710,"austria","AT","background","rural",1993-01-01 00:00:00,2000-11-23 14:00:00,NA,NA,NA,242657,"airbase"
"at32301","St. Pölten Eybnerstraße",48.2115999994667,15.6325,270,"austria","AT","background","urban",1990-01-01 00:00:00,2022-06-13 17:00:00,"NET.03","STA.03.2301","AT32301",1765709,"airbase; aqer:e1a; aqer:e2a"
"at32302","St. Pölten Europaplatz HTL",48.2012999994666,15.6204,271,"austria","AT","traffic","urban",2003-04-09 00:00:00,2022-06-13 17:00:00,"NET.03","STA.03.2302","AT32302",703732,"airbase; aqer:e1a; aqer:e2a"
"at32391","St. Pölten Landhaus",48.201389,15.633056,265,"austria","AT","industrial","suburban",1990-01-01 00:00:00,1992-10-22 01:00:00,NA,NA,NA,69895,"airbase"
"at32401","Wiener Neustadt",47.8141666694659,16.255,265,"austria","AT","background","suburban",1989-04-13 00:00:00,2022-06-13 17:00:00,"NET.03","STA.03.2401","AT32401",1531016,"airbase; aqer:e1a; aqer:e2a"
"at32501","Krems",48.4086099994671,15.619166,200,"austria","AT","background","suburban",1986-05-22 00:00:00,2022-06-13 17:00:00,"NET.03","STA.03.2501","AT32501",1669557,"airbase; aqer:e1a; aqer:e2a"
"at32603","Waidhofen an der Ybbs",47.961391,14.787226,460,"austria","AT","background","suburban",1999-01-01 00:00:00,2008-12-31 07:00:00,NA,NA,NA,462084,"airbase"
"at32604","Kematen an der Ybbs",48.0451111105774,14.7722777777778,330,"austria","AT","background","rural",2010-01-01 00:00:00,2022-06-13 17:00:00,"NET.03","STA.03.2604","AT32604",472367,"airbase; aqer:e1a; aqer:e2a"
"at32701","Schwechat Sportplatz,Mühlgasse",48.1449999994665,16.4744444444444,155,"austria","AT","background","suburban",1986-01-01 00:00:00,2022-06-13 17:00:00,"NET.03","STA.03.2701","AT32701",2068529,"airbase; aqer:e1a; aqer:e2a"
"at32702","Mannswörth bei Schwechat,Danubiastraße/A4",48.1449999994665,16.51111,159,"austria","AT","traffic","suburban",2008-01-01 00:00:00,2022-06-13 17:00:00,"NET.03","STA.03.2702","AT32702",241376,"airbase; aqer:e1a; aqer:e2a"
"at32792","Mannswörth Freizeitgelände",48.145557,16.523611,155,"austria","AT","industrial","suburban",1990-01-01 00:00:00,2006-10-11 00:00:00,NA,NA,NA,455320,"airbase"
"at3baer","Bärnkopf",48.390997,15.003116,968,"austria","AT","background","rural",2019-02-28 23:00:00,2019-11-30 23:00:00,"NET.03","STA.03.BAER","AT3BAER",10,"aqer:e1a"
"at3reir","Reichenau an der Rax",47.699409,15.822389,484,"austria","AT","background","rural",2019-01-31 23:00:00,2019-11-30 23:00:00,"NET.03","STA.03.REIR","AT3REIR",11,"aqer:e1a"
"at4ansf","Ansfelden Gendamerieplatz",48.1984109994666,14.247072,280,"austria","AT","traffic","suburban",2013-12-16 23:00:00,2019-11-26 23:00:00,"NET.04","STA.04.ANSF","AT4ANSF",69,"aqer:e1a"
"at4bern","Linz Bernaschekplatz",48.3108333328002,14.2811111111111,260,"austria","AT","traffic","urban",2003-01-01 00:00:00,2019-11-26 23:00:00,"NET.04","STA.04.BERN","AT4BERN",111,"airbase; aqer:e1a"
"at4lhbf","Linz HBf. Bahnhofsplatz - Bahnhofspinne",48.2910799994668,14.289505,270,"austria","AT","traffic","urban",2013-12-30 23:00:00,2019-11-26 23:00:00,"NET.04","STA.04.LHBF","AT4LHBF",69,"aqer:e1a"
"at4s108","Grünbach bei Freistadt",48.5311111094674,14.574722222222,918,"austria","AT","background","rural_regional",1996-01-01 00:00:00,2022-06-13 17:00:00,"NET.04","STA.04.S108","AT4S108",1438585,"airbase; aqer:e1a; aqer:e2a"
"at4s125","Bad Ischl,Rettenbachstraße",47.7161111105768,13.6322222222222,460,"austria","AT","background","suburban",1991-04-04 00:00:00,2022-06-13 17:00:00,"NET.04","STA.04.S125","AT4S125",1553552,"airbase; aqer:e1a; aqer:e2a"
"at4s131","Linz Tankhafen",48.2944418112928,14.3374712606612,254,"austria","AT","industrial","urban",2001-01-01 00:00:00,2012-01-01 00:00:00,"NET-AT001A","STA-AT4S131","AT4S131",32,"airbase"
"at4s156","Braunau Zentrum,Kolpingplatz",48.2577777772445,13.0397222222222,350,"austria","AT","background","suburban",1999-09-30 00:00:00,2022-06-13 17:00:00,"NET.04","STA.04.S156","AT4S156",1367001,"airbase; aqer:e1a; aqer:e2a"
"at4s165","Enns Kristein A1",48.206944,14.454169,282,"austria","AT","traffic","rural",2003-01-27 00:00:00,2012-12-31 23:00:00,NA,NA,NA,595936,"airbase"
"at4s166","Weibern A8",48.17889,13.683614,450,"austria","AT","traffic","rural",2003-05-20 00:00:00,2004-12-31 23:00:00,NA,NA,NA,40490,"airbase"
"at4s169","Haid  - Ansfelden",48.2,14.25112,280,"austria","AT","traffic","suburban",2004-03-17 00:00:00,2004-12-31 23:00:00,NA,NA,NA,21057,"airbase"
"at4s171","Enns Eckmayermühle B309",48.209724,14.433889,260,"austria","AT","traffic","rural",2006-01-01 00:00:00,2007-12-31 23:00:00,NA,NA,NA,89114,"airbase"
"at4s173","Steyregg Au,Freizeitpark",48.2797499994668,14.3665,250,"austria","AT","industrial","suburban",2007-01-01 00:00:00,2022-06-13 17:00:00,"NET.04","STA.04.S173","AT4S173",814855,"airbase; aqer:e1a; aqer:e2a"
"at4s184","Linz Stadtpark,Noßbergerstraße",48.3061194439113,14.2975027777778,260,"austria","AT","background","urban",2009-01-01 00:00:00,2022-06-13 17:00:00,"NET.04","STA.04.S184","AT4S184",497881,"airbase; aqer:e1a; aqer:e2a"
"at4s197","Steyregg Plesching",48.319721,14.339444,258,"austria","AT","industrial","suburban",2010-01-01 00:00:00,2010-12-31 23:00:00,NA,NA,NA,27109,"airbase"
"at4s198","Steyregg Windegg",48.293056,14.344999,255,"austria","AT","industrial","suburban",2010-01-01 00:00:00,2010-12-31 23:00:00,NA,NA,NA,26367,"airbase"
"at4s199","Ternberg",47.94389,14.361667,340,"austria","AT","background","rural",2010-01-01 00:00:00,2010-12-31 23:00:00,NA,NA,NA,58030,"airbase"
"at4s217","Enns Kristein 3 - Westautobahn",48.2094444439111,14.4369444444444,255,"austria","AT","traffic","rural_nearcity",2012-12-13 23:00:00,2022-06-13 17:00:00,"NET.04","STA.04.S217","AT4S217",344167,"aqer:e1a; aqer:e2a"
"at4s235","Feuerkogel (Höllengebirge)",47.8158549994659,13.720737,1602,"austria","AT","background","rural_remote",2015-05-18 22:00:00,2022-06-13 17:00:00,"NET.04","STA.04.S235","AT4S235",57270,"aqer:e1a; aqer:e2a"
"at4s245","Lenzing Hauptstraße",47.9741388894662,13.6150463,485,"austria","AT","industrial","rural",2017-03-12 22:00:00,2018-03-26 22:00:00,"NET.04","STA.04.S245","AT4S245",18089,"aqer:e1a"
"at4s252","Steyr Tomitzstraße",48.0363319994663,14.415724,308,"austria","AT","traffic","suburban",2018-12-31 23:00:00,2019-06-27 05:00:00,"NET.04","STA.04.S252","AT4S252",8289,"aqer:e1a"
"at4s254","Hallstatt Lahn",47.5570833294654,13.6472778,510,"austria","AT","traffic","rural",2018-12-31 23:00:00,2019-11-13 22:00:00,"NET.04","STA.04.S254","AT4S254",21912,"aqer:e1a"
"at4s401","Linz Hauserhof",48.291943,14.291395,290,"austria","AT","background","urban",1996-01-01 00:00:00,2000-12-31 23:00:00,NA,NA,NA,215591,"airbase"
"at4s403","Linz Urfahr",48.315556,14.280833,269,"austria","AT","traffic","urban",1990-01-01 00:00:00,2007-01-01 00:00:00,NA,NA,NA,768325,"airbase"
"at4s404","Traun Tischlerstraße",48.2253499994667,14.23755,274,"austria","AT","background","suburban",1990-01-01 00:00:00,2022-06-13 17:00:00,"NET.04","STA.04.S404","AT4S404",2127559,"airbase; aqer:e1a; aqer:e2a"
"at4s405","Asten Kirchengasse",48.223335,14.416667,255,"austria","AT","traffic","suburban",1990-01-01 00:00:00,2002-12-31 23:00:00,NA,NA,NA,722032,"airbase"
"at4s406","Wels Linzerstraße",48.1648999994666,14.0366,316,"austria","AT","background","suburban",1990-01-01 00:00:00,2022-06-13 17:00:00,"NET.04","STA.04.S406","AT4S406",1677272,"airbase; aqer:e1a; aqer:e2a"
"at4s407","Vöcklabruck,Untere Agergasse",48.0008333327996,13.6675,420,"austria","AT","background","suburban",1990-01-01 00:00:00,2022-06-13 17:00:00,"NET.04","STA.04.S407","AT4S407",828523,"airbase; aqer:e1a; aqer:e2a"
"at4s409","Steyr Münichholz",48.0494444439108,14.4427777777778,305,"austria","AT","background","suburban",1990-01-01 00:00:00,2022-06-13 17:00:00,"NET.04","STA.04.S409","AT4S409",2073236,"airbase; aqer:e1a; aqer:e2a"
"at4s410","Braunau Lach",48.246666,13.051403,363,"austria","AT","traffic","rural",1993-01-01 00:00:00,1999-09-30 15:00:00,NA,NA,NA,264066,"airbase"
"at4s412","Linz Kleinmünchen",48.2541666661334,14.3105555555556,258,"austria","AT","background","suburban",1990-01-01 00:00:00,2016-12-31 23:00:00,"NET.04","STA.04.S412","AT4S412",1149209,"airbase; aqer:e1a"
"at4s413","Linz Ursulinenhof",48.303055,14.291676,262,"austria","AT","background","urban",1995-01-01 00:00:00,1996-12-31 23:00:00,NA,NA,NA,82668,"airbase"
"at4s414","Linz ORF-Zentrum",48.297501,14.301403,263,"austria","AT","background","urban",1990-01-01 00:00:00,2007-12-11 00:00:00,NA,NA,NA,1008207,"airbase"
"at4s415","Linz 24er Turm A7",48.3233329994669,14.2977778,255,"austria","AT","traffic","suburban",1990-01-01 00:00:00,2022-06-13 17:00:00,"NET.04","STA.04.S415","AT4S415",1619458,"airbase; aqer:e1a; aqer:e2a"
"at4s416","Linz Neue Welt",48.2732899994668,14.31479,265,"austria","AT","background","urban",1985-01-01 00:00:00,2022-06-13 17:00:00,"NET.04","STA.04.S416","AT4S416",2319717,"airbase; aqer:e1a; aqer:e2a"
"at4s417","Steyregg Weih",48.290276,14.352778,335,"austria","AT","industrial","suburban",1990-01-01 00:00:00,2008-01-01 00:00:00,NA,NA,NA,1324969,"airbase"
"at4s418","Lenzing Winterstrasse",47.9719443994662,13.60083333,510,"austria","AT","industrial","rural",1985-01-01 00:00:00,2019-10-28 22:00:00,"NET.04","STA.04.S418","AT4S418",1601256,"airbase; aqer:e1a"
"at4s420","Schöneben",48.7125,13.952244,920,"austria","AT","background","rural",1985-01-01 00:00:00,2012-09-11 11:00:00,NA,NA,NA,646992,"airbase"
"at4s425","Linz Freinberg",48.297222,14.267509,380,"austria","AT","background","suburban",2000-05-02 00:00:00,2002-12-31 23:00:00,NA,NA,NA,98801,"airbase"
"at4s431","Linz Römerberg B139",48.3029899994669,14.28217,262,"austria","AT","traffic","urban",1997-11-03 00:00:00,2022-06-13 17:00:00,"NET.04","STA.04.S431","AT4S431",1080698,"airbase; aqer:e1a; aqer:e2a"
"at4s432","Lenzing Hauptstraße",47.9738599994662,13.60892,485,"austria","AT","industrial","suburban",2019-10-29 15:00:00,2022-06-13 17:00:00,"NET.04","STA.04.S432","AT4S432",129963,"aqer:e1a; aqer:e2a"
"at51000","Salzburg Rudolfsplatz",47.7974999994658,13.0536111111111,425,"austria","AT","traffic","urban",1990-01-01 00:00:00,2022-06-13 17:00:00,"NET.05","STA.05.1000","AT51000",1391180,"airbase; aqer:e1a; aqer:e2a"
"at51002","Gaisberg Zistelalm",47.798332,13.116667,1010,"austria","AT","background","rural",1991-01-07 00:00:00,2003-10-14 17:00:00,NA,NA,NA,201754,"airbase"
"at51066","Salzburg Mirabellplatz",47.8055555994659,13.043333,430,"austria","AT","background","urban",1994-01-01 00:00:00,2022-06-13 17:00:00,"NET.05","STA.05.1066","AT51066",1653886,"airbase; aqer:e1a; aqer:e2a"
"at51200","Salzburg Lehener Park,Franz Martin-Straße 1",47.8156499994659,13.03488,420,"austria","AT","background","urban",2001-06-01 00:00:00,2022-06-13 17:00:00,"NET.05","STA.05.1200","AT51200",1051711,"airbase; aqer:e1a; aqer:e2a"
"at51299","Salzburg Lehen Revierstraße",47.816387,13.031388,420,"austria","AT","background","urban",1990-01-01 00:00:00,2001-06-26 23:00:00,NA,NA,NA,101832,"airbase"
"at51500","Salzburg Stadtautobahn A1",47.814861,13.000439,425,"austria","AT",NA,NA,2020-11-21 10:00:00,2022-06-13 17:00:00,NA,NA,NA,26289,"aqer:e2a"
"at52000","Hallein B159 Kreisverkehr",47.6830555994656,13.1,440,"austria","AT","industrial","urban",1981-01-01 00:00:00,2022-06-13 17:00:00,"NET.05","STA.05.2000","AT52000",1602554,"airbase; aqer:e1a; aqer:e2a"
"at52015","Hallein Gamp",47.672779,13.113903,440,"austria","AT","industrial","suburban",1994-09-08 00:00:00,2001-12-31 23:00:00,NA,NA,NA,66047,"airbase"
"at52055","St. Koloman Kleinhorn",47.6502777994656,13.232778,1005,"austria","AT","background","rural",1990-06-30 00:00:00,2022-06-13 17:00:00,"NET.05","STA.05.2055","AT52055",830043,"airbase; aqer:e1a; aqer:e2a"
"at52100","Hallein Winterstall",47.6669999994656,13.106,650,"austria","AT","background","rural_nearcity",1987-06-26 00:00:00,2022-06-13 17:00:00,"NET.05","STA.05.2100","AT52100",1118703,"airbase; aqer:e1a; aqer:e2a"
"at52300","Hallein A10 Tauernautobahn",47.6913499994657,13.10815,445,"austria","AT","traffic","rural",2003-02-04 00:00:00,2022-06-13 17:00:00,"NET.05","STA.05.2300","AT52300",571535,"airbase; aqer:e1a; aqer:e2a"
"at53055","Haunsberg",47.9366669994661,13.0158333,730,"austria","AT","background","rural",1986-01-01 00:00:00,2022-06-13 17:00:00,"NET.05","STA.05.3055","AT53055",1187500,"airbase; aqer:e1a; aqer:e2a"
"at54057","St. Johann im Pongau,Bezirkshauptmannschaft",47.3513869994651,13.205556,620,"austria","AT","background","suburban",1991-05-06 00:00:00,2022-06-13 17:00:00,"NET.05","STA.05.4057","AT54057",624922,"airbase; aqer:e1a; aqer:e2a"
"at55016","Tamsweg Bezirkshauptmannschaft",47.127777,13.813903,1040,"austria","AT","background","suburban",1994-01-01 00:00:00,2000-12-31 23:00:00,NA,NA,NA,125438,"airbase"
"at55018","Zederhaus A10",47.1540699994648,13.50508,1205,"austria","AT","traffic","rural",2000-01-01 00:00:00,2019-02-25 22:00:00,"NET.05","STA.05.5018","AT55018",976330,"airbase; aqer:e1a"
"at55019","Zederhaus Lamm",47.1337799994647,13.54318,1140,"austria","AT","traffic","rural",2019-02-16 22:00:00,2022-06-13 17:00:00,"NET.05","STA.05.5019","AT55019",83026,"aqer:e1a; aqer:e2a"
"at55032","Tamsweg Untere Postgasse",47.1258333327981,13.8083333333333,1025,"austria","AT","background","suburban",1994-05-01 00:00:00,2022-06-13 17:00:00,"NET.05","STA.05.5032","AT55032",1554130,"airbase; aqer:e1a; aqer:e2a"
"at56065","Zell am See Schloßplatz",47.325832,12.796956,785,"austria","AT","traffic","rural",1997-01-01 00:00:00,1997-12-31 23:00:00,NA,NA,NA,9125,"airbase"
"at56071","Zell am See Krankenhaus",47.3394429994651,12.813889,770,"austria","AT","background","suburban",1994-01-01 00:00:00,2014-07-08 22:00:00,"NET.05","STA.05.6071","AT56071",350316,"airbase; aqer:e1a"
"at56072","Zell am See Freizeitzentrum/Eishalle",47.326639999465,12.795124,775,"austria","AT","background","suburban",2013-12-31 23:00:00,2022-06-13 17:00:00,"NET.05","STA.05.6072","AT56072",140336,"aqer:e1a; aqer:e2a"
"at60018","Graz Schloßberg",47.075833332798,15.4375,450,"austria","AT","background","urban",1992-01-01 00:00:00,2022-06-13 17:00:00,"NET.06","STA.06.018","AT60018",436030,"airbase; aqer:e1a; aqer:e2a"
"at60020","Graz Platte",47.113056,15.470558,661,"austria","AT","background","suburban",1992-01-08 00:00:00,2010-09-15 07:00:00,NA,NA,NA,318622,"airbase"
"at60036","Graz Lustbühel",47.0670111105758,15.4936888888889,473,"austria","AT","background","suburban",2011-01-01 00:00:00,2022-06-13 17:00:00,"NET.06","STA.06.036","AT60036",215120,"airbase; aqer:e1a; aqer:e2a"
"at60103","Voitsberg Freibad",47.049721,15.15,390,"austria","AT","background","urban",1996-01-01 00:00:00,1998-10-28 19:00:00,NA,NA,NA,101640,"airbase"
"at60104","Voitsberg Krems",47.038887,15.165569,380,"austria","AT","background","suburban",1990-01-01 00:00:00,2005-12-31 23:00:00,NA,NA,NA,531999,"airbase"
"at60105","Piber",47.081665,15.078889,585,"austria","AT","background","rural",1990-01-01 00:00:00,2005-12-31 23:00:00,NA,NA,NA,742105,"airbase"
"at60106","Köflach",47.0633299994646,15.086667,445,"austria","AT","background","urban",1990-01-01 00:00:00,2022-06-13 17:00:00,"NET.06","STA.06.106","AT60106",1074178,"airbase; aqer:e1a; aqer:e2a"
"at60107","Voitsberg Mühlgasse",47.0447222216868,15.1527777777778,390,"austria","AT","background","suburban",1999-02-16 00:00:00,2022-06-13 17:00:00,"NET.06","STA.06.107","AT60107",1181770,"airbase; aqer:e1a; aqer:e2a"
"at60114","Zeltweg Hauptschule",47.1924999994648,14.753333,675,"austria","AT","background","suburban",1987-01-01 00:00:00,2022-06-13 17:00:00,"NET.06","STA.06.114","AT60114",830773,"airbase; aqer:e1a; aqer:e2a"
"at60115","Knittelfeld Kindergarten",47.218056,14.830011,635,"austria","AT","background","urban",1990-01-01 00:00:00,2001-12-04 08:00:00,NA,NA,NA,344028,"airbase"
"at60118","Judenburg,Sportplatz",47.1783333327981,14.6766666666667,715,"austria","AT","background","suburban",1990-01-01 00:00:00,2022-06-13 17:00:00,"NET.06","STA.06.118","AT60118",1328626,"airbase; aqer:e1a; aqer:e2a"
"at60119","Knittelfeld Parkstraße",47.2103699994648,14.8252777777778,635,"austria","AT","background","urban",2002-01-01 00:00:00,2022-06-13 17:00:00,"NET.06","STA.06.119","AT60119",658391,"airbase; aqer:e1a; aqer:e2a"
"at60127","Pöls Ost - Unterer Zechner",47.218889,14.601683,795,"austria","AT","background","rural",1990-01-01 00:00:00,2010-08-01 00:00:00,NA,NA,NA,665181,"airbase"
"at60135","Straßengel Kirche",47.1130555550203,15.3391666666667,454,"austria","AT","industrial","urban",1990-01-01 00:00:00,2022-06-13 17:00:00,"NET.06","STA.06.135","AT60135",1008413,"airbase; aqer:e1a; aqer:e2a"
"at60136","Judendorf Süd",47.1202777772447,15.351111111111,375,"austria","AT","industrial","suburban",1990-01-01 00:00:00,2022-06-13 17:00:00,"NET.06","STA.06.136","AT60136",1038606,"airbase; aqer:e1a; aqer:e2a"
"at60137","Hochgössnitz",47.0591699994646,15.016667,900,"austria","AT","background","rural_regional",1990-01-01 00:00:00,2021-12-30 17:00:00,"NET.06","STA.06.137","AT60137",1310500,"airbase; aqer:e1a; aqer:e2a"
"at60138","Graz Nord Gösting",47.0943611105647,15.4151111111111,355,"austria","AT","background","suburban",1990-01-01 00:00:00,2022-06-13 17:00:00,"NET.06","STA.06.138","AT60138",1650683,"airbase; aqer:e1a; aqer:e2a"
"at60139","Graz West - Eggenberg",47.0694429994647,15.404388,370,"austria","AT","background","urban",1990-01-01 00:00:00,2022-06-13 17:00:00,"NET.06","STA.06.139","AT60139",1295896,"airbase; aqer:e1a; aqer:e2a"
"at60140","Graz Süd Herrgottwiesgasse",47.043056,15.434736,345,"austria","AT","background","suburban",1990-01-01 00:00:00,2003-04-23 21:00:00,NA,NA,NA,618467,"airbase"
"at60141","Leoben Göss",47.358888888354,15.1036111111111,554,"austria","AT","background","suburban",1990-01-01 00:00:00,2022-06-13 17:00:00,"NET.06","STA.06.141","AT60141",1046004,"airbase; aqer:e1a; aqer:e2a"
"at60142","Leoben Donawitz Kindergarten",47.3755555550207,15.0745,555,"austria","AT","industrial","suburban",1990-01-01 00:00:00,2022-06-13 17:00:00,"NET.06","STA.06.142","AT60142",1567433,"airbase; aqer:e1a; aqer:e2a"
"at60143","Leoben Zentrum",47.3824999994651,15.0891666666667,543,"austria","AT","background","urban",1990-01-01 00:00:00,2022-06-13 17:00:00,"NET.06","STA.06.143","AT60143",1380821,"airbase; aqer:e1a; aqer:e2a"
"at60144","Bruck an der Mur - Glorietteweg",47.415279,15.280847,550,"austria","AT","background","urban",1996-01-01 00:00:00,1999-06-07 09:00:00,NA,NA,NA,87569,"airbase"
"at60145","Kapfenberg St. Martin",47.4458333327985,15.29032,517,"austria","AT","background","suburban",1990-01-01 00:00:00,2022-06-13 17:00:00,"NET.06","STA.06.145","AT60145",1035574,"airbase; aqer:e1a; aqer:e2a"
"at60147","Deutschlandsberg Frauentalerstraße",46.818333,15.228344,365,"austria","AT","background","urban",1990-01-01 00:00:00,2005-08-29 08:00:00,NA,NA,NA,881012,"airbase"
"at60150","Rennfeld",47.4055555550207,15.3608333333333,1610,"austria","AT","background","rural_remote",1990-01-01 00:00:00,2022-06-13 17:00:00,"NET.06","STA.06.150","AT60150",623482,"airbase; aqer:e1a; aqer:e2a"
"at60151","Bockberg",46.8713888883533,15.4958333333333,449,"austria","AT","background","rural",1988-06-09 15:00:00,2022-06-13 17:00:00,"NET.06","STA.06.151","AT60151",1489633,"airbase; aqer:e1a; aqer:e2a"
"at60154","Wildon",46.887501,15.508061,314,"austria","AT","background","rural",1996-01-10 00:00:00,1999-12-31 23:00:00,NA,NA,NA,81210,"airbase"
"at60156","Masenberg",47.3480599994651,15.882222,1180,"austria","AT","background","rural_regional",1990-01-01 00:00:00,2022-06-13 17:00:00,"NET.06","STA.06.156","AT60156",1577086,"airbase; aqer:e1a; aqer:e2a"
"at60157","Grundlsee Tressensattel",47.6305599994655,13.796667,980,"austria","AT","background","rural_regional",1990-03-02 00:00:00,2022-06-13 16:00:00,"NET.06","STA.06.157","AT60157",598416,"airbase; aqer:e1a; aqer:e2a"
"at60160","Graz Mitte Landhausgasse",47.069721,15.438614,355,"austria","AT","background","urban",1990-01-01 00:00:00,2009-12-12 00:00:00,NA,NA,NA,788930,"airbase"
"at60161","Graz Ost",47.060555,15.471113,366,"austria","AT","background","suburban",1990-01-01 00:00:00,2004-11-26 00:00:00,NA,NA,NA,431084,"airbase"
"at60162","Graz Südwest",47.033054,15.4,360,"austria","AT","background","suburban",1996-01-01 00:00:00,1999-12-14 10:00:00,NA,NA,NA,116301,"airbase"
"at60164","Graz Don Bosco",47.0556109994646,15.416603,358,"austria","AT","background","urban",2000-01-01 00:00:00,2022-06-13 17:00:00,"NET.06","STA.06.164","AT60164",1039477,"airbase; aqer:e1a; aqer:e2a"
"at60170","Graz Süd Tiergartenweg",47.0416679994646,15.433056,345,"austria","AT","background","urban",2003-04-25 00:00:00,2022-06-13 17:00:00,"NET.06","STA.06.170","AT60170",1180637,"airbase; aqer:e1a; aqer:e2a"
"at60171","Graz Ost Petersgasse",47.0594439994646,15.466666,366,"austria","AT","traffic","suburban",2006-01-01 00:00:00,2022-06-13 17:00:00,"NET.06","STA.06.171","AT60171",363370,"airbase; aqer:e1a; aqer:e2a"
"at60172","Graz Mitte Gries",47.0692399994646,15.431945,366,"austria","AT","background","urban",2010-02-18 00:00:00,2022-06-13 17:00:00,"NET.06","STA.06.172","AT60172",391947,"airbase; aqer:e1a; aqer:e2a"
"at60177","Liezen Pyhnbrach - Alte Gasse",47.5654389994654,14.244676,649,"austria","AT","background","suburban",2015-10-22 22:00:00,2022-06-13 17:00:00,"NET.06","STA.06.177","AT60177",278395,"aqer:e1a; aqer:e2a"
"at60178","Weiz Bahnhofstraße",47.2157029994648,15.628392,459,"austria","AT","background","suburban",2015-07-05 23:00:00,2022-06-13 17:00:00,"NET.06","STA.06.178","AT60178",291412,"aqer:e1a; aqer:e2a"
"at60179","Hartberg Zentrum",47.282859999465,15.971852,349,"austria","AT","background","suburban",2010-01-29 12:00:00,2022-06-13 17:00:00,"NET.06","STA.06.179","AT60179",582693,"airbase; aqer:e1a; aqer:e2a"
"at60180","Bruck an der Mur Flurgasse",47.4094429994652,15.253333,485,"austria","AT","background","suburban",2007-04-04 00:00:00,2022-06-13 17:00:00,"NET.06","STA.06.180","AT60180",473246,"airbase; aqer:e1a; aqer:e2a"
"at60181","Weiz Birkfelder Straße",47.2172239994649,15.628333,456,"austria","AT","background","urban",1993-01-01 00:00:00,2015-06-30 06:00:00,"NET.06","STA.06.181","AT60181",1164465,"airbase; aqer:e1a"
"at60182","Liezen Alte Gasse 8",47.5672222216877,14.2436111111111,665,"austria","AT","background","suburban",1993-05-01 00:00:00,2015-09-09 06:00:00,"NET.06","STA.06.182","AT60182",1071763,"airbase; aqer:e1a"
"at60183","Peggau",47.2063888883537,15.3458333333333,410,"austria","AT","background","rural_regional",1993-05-13 00:00:00,2018-07-03 22:00:00,"NET.06","STA.06.183","AT60183",801603,"airbase; aqer:e1a"
"at60184","Kindberg-Wartberg",47.514446,15.486392,660,"austria","AT","background","rural",1995-01-11 00:00:00,2004-10-07 14:00:00,NA,NA,NA,168476,"airbase"
"at60185","Klöch bei Bad Radkersburg",46.7674999994643,15.956111,415,"austria","AT","background","rural_regional",1995-06-21 00:00:00,2022-06-13 17:00:00,"NET.06","STA.06.185","AT60185",780291,"airbase; aqer:e1a; aqer:e2a"
"at60186","Reiterberg",47.223611,14.638894,935,"austria","AT","industrial","rural",1996-01-01 00:00:00,2010-08-01 07:00:00,NA,NA,NA,199194,"airbase"
"at60188","Hartberg Wiesengasse",47.27861,15.97501,330,"austria","AT","background","suburban",1996-07-11 00:00:00,2009-12-31 23:00:00,NA,NA,NA,732527,"airbase"
"at60189","Hochwurzen",47.3602777772429,13.6394444444444,1852,"austria","AT","background","rural_remote",1996-09-12 00:00:00,2022-06-13 17:00:00,"NET.06","STA.06.189","AT60189",389995,"airbase; aqer:e1a; aqer:e2a"
"at60190","Arnfels - Remschnigg",46.6519499994641,15.36778,785,"austria","AT","background","rural_regional",1993-01-01 00:00:00,2022-06-13 16:00:00,"NET.06","STA.06.190","AT60190",650586,"airbase; aqer:e1a; aqer:e2a"
"at60191","Gratwein",47.1356999994647,15.3232,382,"austria","AT","industrial","rural",1999-03-01 00:00:00,2022-06-13 17:00:00,"NET.06","STA.06.191","AT60191",738993,"airbase; aqer:e1a; aqer:e2a"
"at60192","Bruck an der Mur West",47.411392,15.258619,485,"austria","AT","traffic","suburban",1999-08-01 00:00:00,2006-12-31 23:00:00,NA,NA,NA,270564,"airbase"
"at60193","Niklasdorf Sportplatz",47.3961110994651,15.1469444,510,"austria","AT","background","suburban",2003-01-01 00:00:00,2014-01-13 22:00:00,"NET.06","STA.06.193","AT60193",406974,"airbase; aqer:e1a"
"at60194","Mürzzuschlag Roseggerpark",47.6047222216877,15.6730555555556,679,"austria","AT","background","suburban",2005-01-01 00:00:00,2022-06-13 17:00:00,"NET.06","STA.06.194","AT60194",699835,"airbase; aqer:e1a; aqer:e2a"
"at60195","Deutschlandsberg Rathausgasse",46.8138888883532,15.2127777777778,365,"austria","AT","background","suburban",2006-01-01 00:00:00,2022-06-13 17:00:00,"NET.06","STA.06.195","AT60195",686834,"airbase; aqer:e1a; aqer:e2a"
"at60196","Grebenzen bei St. Lambrecht",47.0402777772424,14.330725,1860,"austria","AT","background","rural_remote",2007-01-01 00:00:00,2022-06-13 17:00:00,"NET.06","STA.06.196","AT60196",187848,"airbase; aqer:e1a; aqer:e2a"
"at60197","Leibnitz Lastenstraße",46.7783333327976,15.5405555555556,272,"austria","AT","traffic","suburban",2007-01-01 00:00:00,2022-06-13 17:00:00,"NET.06","STA.06.197","AT60197",429433,"airbase; aqer:e1a; aqer:e2a"
"at60198","Fürstenfeld Schillerplatz",47.0473499994646,16.07905,276,"austria","AT","background","suburban",2007-01-01 00:00:00,2022-06-13 17:00:00,"NET.06","STA.06.198","AT60198",687301,"airbase; aqer:e1a; aqer:e2a"
"at60g03","Graz St. Leonhard,Herz-Jesu-Kirche",47.0697809994646,15.455128,360,"austria","AT","background","urban",2014-12-29 23:00:00,2019-12-09 23:00:00,"NET.06","STA.06.G03","AT60G03",127,"aqer:e1a"
"at6thoe","Thörl bei Aflenz",47.52306,15.21611,638,"austria","AT","background","rural",2012-01-01 00:00:00,2012-01-01 00:00:00,NA,NA,NA,1,"airbase"
"at6uebe","Uebelbach",47.2264797450911,15.2352475556103,580,"austria","AT","background","rural",NA,NA,"NET-AT001A","STA-AT6UEBE","AT6UEBE",NA,"aqer:e1a"
"at72106","Innsbruck Reichenau - Andechsstraße",47.2712899994649,11.4169445,570,"austria","AT","background","urban",1988-01-01 00:00:00,2022-06-13 17:00:00,"NET.07","STA.07.2106","AT72106",1728940,"airbase; aqer:e1a; aqer:e2a"
"at72110","Innsbruck Zentrum - Fallmerayerstraße",47.2626193994649,11.3923611,577,"austria","AT","background","urban",1989-01-01 00:00:00,2022-06-13 17:00:00,"NET.07","STA.07.2110","AT72110",1373745,"airbase; aqer:e1a; aqer:e2a"
"at72113","Innsbruck Sadrach",47.2699027994649,11.3746611,678,"austria","AT","background","suburban",1992-06-23 00:00:00,2022-06-13 17:00:00,"NET.07","STA.07.2113","AT72113",656269,"airbase; aqer:e1a; aqer:e2a"
"at72115","Vill Zenzenhof A13",47.225578,11.392064,732,"austria","AT",NA,NA,2020-12-01 23:00:00,2022-06-13 17:00:00,NA,NA,NA,13662,"aqer:e2a"
"at72123","Innsbruck Nordkette (Seegrube)",47.305622199465,11.3759972,1958,"austria","AT","background","rural_nearcity",1986-01-01 00:00:00,2022-06-13 17:00:00,"NET.07","STA.07.2123","AT72123",1170338,"airbase; aqer:e1a; aqer:e2a"
"at72126","Innsbruck Olympisches Dorf",47.273056,11.441953,570,"austria","AT","background","suburban",1996-01-01 00:00:00,1998-12-31 23:00:00,NA,NA,NA,63126,"airbase"
"at72209","Hall i.T. Münzergasse",47.27639,11.503336,570,"austria","AT","traffic","urban",1990-01-01 00:00:00,2006-12-31 23:00:00,NA,NA,NA,376592,"airbase"
"at72218","Karwendel West",47.342778,11.228344,1730,"austria","AT","background","rural",1988-01-01 00:00:00,2010-12-31 23:00:00,NA,NA,NA,408681,"airbase"
"at72223","Gärberbach A13 Brennerautobahn",47.2395527994649,11.390653,688,"austria","AT","traffic","suburban",1995-07-12 00:00:00,2021-12-30 17:00:00,"NET.07","STA.07.2223","AT72223",721813,"airbase; aqer:e1a; aqer:e2a"
"at72227","Hall in Tirol Untere Lend",47.278069999465,11.512497,558,"austria","AT","background","suburban",2007-01-01 00:00:00,2022-06-13 17:00:00,"NET.07","STA.07.2227","AT72227",327742,"airbase; aqer:e1a; aqer:e2a"
"at72311","Imst Imsterau",47.218056,10.736114,635,"austria","AT","traffic","suburban",2002-01-15 00:00:00,2010-12-31 23:00:00,NA,NA,NA,252118,"airbase"
"at72315","Imst Inntalautobahn A12",47.2169471994649,10.7357167,719,"austria","AT","traffic","suburban",2008-01-01 00:00:00,2022-06-13 17:00:00,"NET.07","STA.07.2315","AT72315",315797,"airbase; aqer:e1a; aqer:e2a"
"at72519","Brixlegg Innweg",47.4285527994652,11.8718028,519,"austria","AT","industrial","rural",1997-01-02 00:00:00,2022-06-13 17:00:00,"NET.07","STA.07.2519","AT72519",356380,"airbase; aqer:e1a; aqer:e2a"
"at72530","Wörgl Stelzhamerstraße",47.4885582994653,12.066633,508,"austria","AT","background","suburban",1987-01-01 00:00:00,2022-06-13 17:00:00,"NET.07","STA.07.2530","AT72530",1044454,"airbase; aqer:e1a; aqer:e2a"
"at72538","Kramsach Angerberg",47.4587169994652,11.90995,602,"austria","AT","background","rural",1990-07-12 00:00:00,2022-06-13 17:00:00,"NET.07","STA.07.2538","AT72538",1002415,"airbase; aqer:e1a; aqer:e2a"
"at72539","Kufstein Zentrum Franz Josefs Platz",47.584442,12.172228,500,"austria","AT","traffic","urban",1990-07-17 00:00:00,2003-11-12 08:00:00,NA,NA,NA,412462,"airbase"
"at72547","Kufstein Festung",47.5805277994654,12.1692472,526,"austria","AT","background","suburban",1995-01-01 00:00:00,2022-06-13 17:00:00,"NET.07","STA.07.2547","AT72547",377238,"airbase; aqer:e1a; aqer:e2a"
"at72550","Kundl A12 Inntal-Autobahn",47.4689166994653,11.958036,507,"austria","AT","traffic","rural_regional",2007-01-01 00:00:00,2022-06-13 17:00:00,"NET.07","STA.07.2550","AT72550",242776,"airbase; aqer:e1a; aqer:e2a"
"at72552","Kufstein Zentrum Praxmarerstraße",47.5818082994654,12.1724111,489,"austria","AT","background","urban",2004-01-01 00:00:00,2022-06-13 17:00:00,"NET.07","STA.07.2552","AT72552",505593,"airbase; aqer:e1a; aqer:e2a"
"at72617","Landeck Gerberbrücke",47.137779,10.566947,817,"austria","AT","traffic","urban",1996-03-20 00:00:00,2001-12-31 23:00:00,NA,NA,NA,184098,"airbase"
"at72619","Galtür Volksschule",46.9680809994645,10.185693,1583,"austria","AT","background","rural",2017-12-28 23:00:00,2018-12-30 22:00:00,"NET.07","STA.07.2619","AT72619",16767,"aqer:e1a"
"at72620","St. Anton am Arlberg - Galzig",47.133681,10.224811,2147,"austria","AT",NA,NA,2020-12-31 23:00:00,2022-06-13 17:00:00,NA,NA,NA,10284,"aqer:e2a"
"at72705","Höfen Lärchbichl",47.4698369994652,10.682283,877,"austria","AT","background","rural_regional",1990-06-21 00:00:00,2022-06-13 17:00:00,"NET.07","STA.07.2705","AT72705",471998,"airbase; aqer:e1a; aqer:e2a"
"at72710","Heiterwang",47.4475971994652,10.7441167,985,"austria","AT","background","rural",2003-01-27 00:00:00,2022-06-13 17:00:00,"NET.07","STA.07.2710","AT72710",641755,"airbase; aqer:e1a; aqer:e2a"
"at72807","Zillertaler Alpen",47.136944,11.869725,1970,"austria","AT","background","rural",1987-03-06 00:00:00,2010-11-10 21:00:00,NA,NA,NA,418901,"airbase"
"at72821","Vomp A12 (Inntalautobahn),Raststätte",47.3487739994651,11.692028,557,"austria","AT","traffic","rural",1997-05-15 00:00:00,2022-06-13 17:00:00,"NET.07","STA.07.2821","AT72821",728376,"airbase; aqer:e1a; aqer:e2a"
"at72822","Vomp An der Leiten",47.3499916994651,11.6945417,543,"austria","AT","traffic","suburban",2001-01-01 00:00:00,2021-04-27 05:00:00,"NET.07","STA.07.2822","AT72822",510999,"airbase; aqer:e1a; aqer:e2a"
"at72906","Lienz Dolomitenkreuzung",46.828331,12.7614,670,"austria","AT","traffic","urban",1996-03-20 00:00:00,1998-06-17 14:00:00,NA,NA,NA,48226,"airbase"
"at72908","Lienz Sportzentrum",46.825,12.765569,670,"austria","AT","background","suburban",1996-07-01 00:00:00,2010-10-01 16:00:00,NA,NA,NA,255061,"airbase"
"at72910","Lienz Amlacherkreuzung",46.8277319994643,12.765622,675,"austria","AT","traffic","urban",1998-01-09 00:00:00,2022-06-13 17:00:00,"NET.07","STA.07.2910","AT72910",1028663,"airbase; aqer:e1a; aqer:e2a"
"at72912","Lienz Tristacher-See-Straße,Tiefbrunnen",46.8191110994643,12.766025,681,"austria","AT","background","rural",2010-01-01 00:00:00,2022-06-13 17:00:00,"NET.07","STA.07.2912","AT72912",369492,"airbase; aqer:e1a; aqer:e2a"
"at80471","Bregenz Montfortstraße",47.502777,9.745289,726,"austria","AT","traffic","rural",2001-01-01 00:00:00,2003-01-01 00:00:00,NA,NA,NA,3,"airbase"
"at80503","Sulzberg - Gmeind",47.5291999994653,9.9267,1020,"austria","AT","background","rural_regional",1989-05-20 00:00:00,2022-06-13 17:00:00,"NET.08","STA.08.0503","AT80503",1102696,"airbase; aqer:e1a; aqer:e2a"
"at80706","Lustenau Wiesenrain",47.4101639994652,9.653713,410,"austria","AT","background","suburban",1988-01-01 00:00:00,2022-06-13 17:00:00,"NET.08","STA.08.0706","AT80706",1294977,"airbase; aqer:e1a; aqer:e2a"
"at80709","Höchst Gemeindeamt",47.459687777243,9.64055333333333,405,"austria","AT","traffic","urban",2003-03-26 00:00:00,2022-06-13 17:00:00,"NET.08","STA.08.0709","AT80709",336330,"airbase; aqer:e1a; aqer:e2a"
"at80710","Lustenau Zollamt",47.4324908327985,9.65048222222222,410,"austria","AT","traffic","urban",2003-05-16 00:00:00,2022-06-13 17:00:00,"NET.08","STA.08.0710","AT80710",343097,"airbase; aqer:e1a; aqer:e2a"
"at80807","Dornbirn Stadtstraße",47.4100322216874,9.74344083333333,440,"austria","AT","traffic","suburban",1991-01-01 00:00:00,2022-06-13 17:00:00,"NET.08","STA.08.0807","AT80807",879684,"airbase; aqer:e1a; aqer:e2a"
"at81913","Feldkirch Hirschgraben",47.238613,9.596955,460,"austria","AT","traffic","urban",1996-01-01 00:00:00,1998-05-28 16:00:00,NA,NA,NA,54448,"airbase"
"at81919","Feldkirch Bärenkreuzung",47.2394449994649,9.597696,460,"austria","AT","traffic","urban",1998-05-28 00:00:00,2022-06-13 17:00:00,"NET.08","STA.08.1919","AT81919",832884,"airbase; aqer:e1a; aqer:e2a"
"at82707","Bludenz Rathaus",47.156944,9.819725,580,"austria","AT","background","urban",1990-01-01 00:00:00,2003-12-17 20:00:00,NA,NA,NA,644085,"airbase"
"at82708","Bludenz Herrengasse",47.1564829994648,9.822944,580,"austria","AT","background","suburban",2004-01-01 00:00:00,2022-06-13 17:00:00,"NET.08","STA.08.2708","AT82708",594824,"airbase; aqer:e1a; aqer:e2a"
"at82801","Wald am Arlberg S16",47.1288629994647,10.034324,940,"austria","AT","traffic","rural",1991-05-03 00:00:00,2022-06-13 17:00:00,"NET.08","STA.08.2801","AT82801",881759,"airbase; aqer:e1a; aqer:e2a"
"at900ke","Kaiser-Ebersdorf",48.1567079994665,16.476051,158,"austria","AT","industrial","suburban",1987-04-17 00:00:00,2022-06-13 17:00:00,"NET.09","STA.09.KE","AT900KE",1321810,"airbase; aqer:e1a; aqer:e2a"
"at900za","Hohe Warte",48.2489929994668,16.357079,210,"austria","AT","background","suburban",1988-01-01 00:00:00,2022-06-13 17:00:00,"NET.09","STA.09.ZA","AT900ZA",1694774,"airbase; aqer:e1a; aqer:e2a"
"at90a23","Wehlistraße/Südosttangente",48.2030599994666,16.43455,162,"austria","AT","background","suburban",2013-12-31 22:00:00,2022-06-13 17:00:00,"NET.09","STA.09.A23","AT90A23",328186,"aqer:e1a; aqer:e2a"
"at90aka","Wien AKH-Dach",48.220833,16.347792,270,"austria","AT","background","urban",1996-01-01 00:00:00,1998-12-24 07:00:00,NA,NA,NA,35247,"airbase"
"at90akc","AKH",48.2191099994667,16.349818,184,"austria","AT","background","urban",1988-01-01 00:00:00,2022-06-13 17:00:00,"NET.09","STA.09.AKC","AT90AKC",1238409,"airbase; aqer:e1a; aqer:e2a"
"at90flo","Floridsdorf",48.2610859994668,16.396954,164,"austria","AT","background","urban",1988-02-01 00:00:00,2022-06-13 17:00:00,"NET.09","STA.09.FLO","AT90FLO",1187434,"airbase; aqer:e1a; aqer:e2a"
"at90laa","Laaer Berg",48.1610363883555,16.3929202777778,251,"austria","AT","background","suburban",1988-01-01 00:00:00,2022-06-13 17:00:00,"NET.09","STA.09.LAA","AT90LAA",1572638,"airbase; aqer:e1a; aqer:e2a"
"at90lob","Lobau",48.162069443911,16.5256138888889,155,"austria","AT","background","suburban",1987-01-01 00:00:00,2022-06-13 17:00:00,"NET.09","STA.09.LOB","AT90LOB",1757916,"airbase; aqer:e1a; aqer:e2a"
"at90mba","Hietzinger Kai",48.1883724994666,16.3000202777778,194,"austria","AT","traffic","urban",1988-01-01 00:00:00,2022-06-13 17:00:00,"NET.09","STA.09.MBA","AT90MBA",1223489,"airbase; aqer:e1a; aqer:e2a"
"at90tab","Taborstraße",48.2167394439111,16.3809180555556,162,"austria","AT","traffic","urban",1988-01-01 00:00:00,2022-06-13 17:00:00,"NET.09","STA.09.TAB","AT90TAB",1459494,"airbase; aqer:e1a; aqer:e2a"
"at9belg","Belgradplatz",48.1743530550222,16.3614172222222,218,"austria","AT","background","urban",1988-02-01 00:00:00,2022-06-13 17:00:00,"NET.09","STA.09.BELG","AT9BELG",948809,"airbase; aqer:e1a; aqer:e2a"
"at9gaud","Gaudenzdorf",48.187146943911,16.3393311111111,179,"austria","AT","background","urban",1988-02-01 00:00:00,2022-06-13 17:00:00,"NET.09","STA.09.GAUD","AT9GAUD",1588545,"airbase; aqer:e1a; aqer:e2a"
"at9jaeg","Hermannskogel",48.2701999994668,16.2972,488,"austria","AT","background","suburban",1988-07-01 00:00:00,2022-06-13 17:00:00,"NET.09","STA.09.JAEG","AT9JAEG",1659473,"airbase; aqer:e1a; aqer:e2a"
"at9kend","Kendlerstraße",48.2049999994667,16.30975,236,"austria","AT","background","urban",1988-06-09 00:00:00,2022-06-13 17:00:00,"NET.09","STA.09.KEND","AT9KEND",1081332,"airbase; aqer:e1a; aqer:e2a"
"at9lies","Liesing - Gewerbegebiet",48.1412499994665,16.30127778,211,"austria","AT","background","suburban",1988-01-01 00:00:00,2022-06-13 17:00:00,"NET.09","STA.09.LIES","AT9LIES",1216779,"airbase; aqer:e1a; aqer:e2a"
"at9rinn","Rinnböckstraße - A23",48.1841441661333,16.4065972222222,171,"austria","AT","background","urban",1988-01-01 00:00:00,2014-01-07 09:00:00,"NET.09","STA.09.RINN","AT9RINN",1493596,"airbase; aqer:e1a"
"at9scha","Schafberg",48.2353699994667,16.301563,319,"austria","AT","background","suburban",1988-01-01 00:00:00,2022-06-13 17:00:00,"NET.09","STA.09.SCHA","AT9SCHA",1343170,"airbase; aqer:e1a; aqer:e2a"
"at9stad","Stadlau",48.2263608328,16.458345,159,"austria","AT","background","urban",1988-01-01 00:00:00,2022-06-13 17:00:00,"NET.09","STA.09.STAD","AT9STAD",1386337,"airbase; aqer:e1a; aqer:e2a"
"at9stef","Stephansplatz",48.2081499994666,16.3732536111111,172,"austria","AT","background","urban",1988-01-01 00:00:00,2022-06-13 17:00:00,"NET.09","STA.09.STEF","AT9STEF",1448830,"airbase; aqer:e1a; aqer:e2a"
"ba0001g","IVAN SEDLO",43.778332,18.020281,970,"bosnia_and_herzegovina","BA","background","rural_regional",2006-01-01 00:00:00,2022-06-06 09:00:00,"net-ba001a","STA-BA0001G","BA0001G",200936,"airbase; aqer:e1a; aqer:e2a"
"ba0002a",NA,44.20222,17.9005,341,"bosnia_and_herzegovina","BA","industrial","urban",2015-12-31 23:00:00,2022-06-06 07:00:00,"net-ba001a","STA-BA0036A","BA0002A",105705,"aqer:e1a; aqer:e2a"
"ba0029a","SARAJEVO-BJ-AUTOMAT",43.867496,18.423061,630,"bosnia_and_herzegovina","BA","background","urban",2002-01-01 00:00:00,2022-06-06 09:00:00,"net-ba001a","STA-BA0029A","BA0029A",768975,"airbase; aqer:e1a; aqer:e2a"
"ba0031a","SKVER - MS1",44.540554,18.673338,220,"bosnia_and_herzegovina","BA","traffic","urban",2004-01-01 00:00:00,2022-06-06 09:00:00,"net-ba001a","STA-BA0031A","BA0031A",451288,"airbase; aqer:e1a; aqer:e2a"
"ba0032a","TUZLA1 - MS2",44.534721,18.661678,210,"bosnia_and_herzegovina","BA","traffic","suburban",2004-01-01 00:00:00,2022-06-06 09:00:00,"net-ba003a","STA-BA0032A","BA0032A",301239,"airbase; aqer:e1a; aqer:e2a"
"ba0034a","BANJA LUKA-AUTOMATSKA STANICA",44.796944,17.196667,153,"bosnia_and_herzegovina","BA","background","urban",2008-01-01 00:00:00,2011-12-31 23:00:00,NA,NA,NA,164572,"airbase"
"ba0035a","SARAJEVO ALIPASINA",43.856388,18.41361,520,"bosnia_and_herzegovina","BA","background","urban",2009-01-01 00:00:00,2011-12-31 23:00:00,NA,NA,NA,235021,"airbase"
"ba0036a","ZENICA - BRIST",44.20222,17.9005,341,"bosnia_and_herzegovina","BA",NA,NA,NA,NA,NA,NA,NA,NA,"aqer:e2a"
"ba0037a","ZENICA - CENTAR",44.199,17.9127,318,"bosnia_and_herzegovina","BA","background","urban",2016-01-03 23:00:00,2022-06-06 09:00:00,"net-ba004a","STA-BA0037A","BA0037A",195799,"aqer:e1a; aqer:e2a"
"ba0038a","ZENICA - TETOVO",44.2254,17.8911,336,"bosnia_and_herzegovina","BA","industrial","suburban",2018-12-31 23:00:00,2022-06-04 14:00:00,"net-ba004a","STA-BA0038A","BA0038A",136846,"aqer:e1a; aqer:e2a"
"ba0039a","ZENICA - RADAKOVO",44.1952,17.932,332,"bosnia_and_herzegovina","BA","background","urban",2017-12-31 23:00:00,2022-06-06 09:00:00,"net-ba004a","STA-BA0039A","BA0039A",157894,"aqer:e1a; aqer:e2a"
"ba0040a","JAJCE - HARMANI",44.343,17.2679,421,"bosnia_and_herzegovina","BA","background","urban",2015-12-31 23:00:00,2022-06-06 07:00:00,"net-ba001a","STA-BA0040A","BA0040A",175849,"aqer:e1a; aqer:e2a"
"ba0041a","GORAZDE - RASADNIK",43.6616,18.9775,361,"bosnia_and_herzegovina","BA","background","suburban",2015-12-31 23:00:00,2022-06-06 09:00:00,"net-ba001a","STA-BA0041A","BA0041A",202463,"aqer:e1a; aqer:e2a"
"ba0042a","SARAJEVO - OTOKA",43.8484,18.3637,512,"bosnia_and_herzegovina","BA","background","urban",2015-12-31 23:00:00,2022-06-06 09:00:00,"net-ba002a","STA-BA0042A","BA0042A",183462,"aqer:e1a; aqer:e2a"
"ba0043a","SARAJEVO - ILIDZA",43.8301,18.3111,498,"bosnia_and_herzegovina","BA","background","urban",2015-12-31 23:00:00,2022-06-06 09:00:00,"net-ba002a","STA-BA0043A","BA0043A",144184,"aqer:e1a; aqer:e2a"
"ba0044a","TUZLA - BUKINJE",44.5237,18.6002,215,"bosnia_and_herzegovina","BA","industrial","suburban",2018-12-31 23:00:00,2022-06-06 09:00:00,"net-ba003a","STA-BA0044A","BA0044A",65644,"aqer:e1a; aqer:e2a"
"ba0045a","LUKAVAC - CENTAR",44.5332,18.5347,187,"bosnia_and_herzegovina","BA","industrial","urban",2015-12-31 23:00:00,2022-06-06 09:00:00,"net-ba003a","STA-BA0045A","BA0045A",177495,"aqer:e1a; aqer:e2a"
"ba0046a","ZIVINICE - CENTAR",44.4541,18.6485,215,"bosnia_and_herzegovina","BA","industrial","urban",2016-12-31 23:00:00,2022-06-06 09:00:00,"net-ba003a","STA-BA0046A","BA0046A",119993,"aqer:e1a; aqer:e2a"
"ba0047a","BROD-RAFINERIJA",45.07,17.59,88,"bosnia_and_herzegovina","BA","industrial","urban",2014-12-31 23:00:00,2018-12-31 22:00:00,"net-ba001b","STA-BA0047A","BA0047A",207977,"aqer:e1a"
"ba0048a","PRIJEDOR-AUTOMATSKA STANICA",44.97,16.71,133,"bosnia_and_herzegovina","BA","background","urban",2015-12-31 23:00:00,2021-08-19 01:00:00,"net-ba001b","STA-BA0048A","BA0048A",126140,"aqer:e1a; aqer:e2a"
"ba0049a","SARAJEVO - VIJECNICA",43.859,18.4348,553,"bosnia_and_herzegovina","BA","background","urban",2018-12-31 23:00:00,2022-06-06 09:00:00,"net-ba002a","STA-BA0049A","BA0049A",91334,"aqer:e1a; aqer:e2a"
"ba0050a","SARAJEVO - ILIJAS",43.96,18.2693,459,"bosnia_and_herzegovina","BA","background","urban",2017-12-31 23:00:00,2022-06-06 09:00:00,"net-ba002a","STA-BA0050A","BA0050A",117812,"aqer:e1a; aqer:e2a"
"ba0051a","ZENICA - VRANDUK",44.29,17.91,361,"bosnia_and_herzegovina","BA",NA,NA,2019-12-31 23:00:00,2022-06-06 09:00:00,NA,NA,NA,60456,"aqer:e2a"
"ba0052a","KAKANJ - DOBOJ",44.11,18.12,381,"bosnia_and_herzegovina","BA","industrial","suburban",2018-12-31 22:00:00,2022-06-06 09:00:00,"net-ba005a","STA-BA0052A","BA0052A",63213,"aqer:e1a; aqer:e2a"
"ba0054a","MAGLAJ",44.54,18.1,176,"bosnia_and_herzegovina","BA",NA,NA,2020-11-19 14:00:00,2022-05-24 10:00:00,NA,NA,NA,29521,"aqer:e2a"
"ba0055a","VISOKO",43.99,18.18,426,"bosnia_and_herzegovina","BA",NA,NA,2020-11-19 14:00:00,2022-06-06 09:00:00,NA,NA,NA,44456,"aqer:e2a"
"be0312a","44N030 - ROESELARE",50.945896,3.15117,19,"belgium","BE","industrial","suburban",1992-02-12 00:00:00,1998-12-31 23:00:00,NA,NA,NA,67128,"airbase"
"be0333a","0WEZ01 - WEZEL",51.206856,5.242136,45,"belgium","BE","industrial","suburban",1997-01-01 00:00:00,1997-12-31 00:00:00,NA,NA,NA,978,"airbase"
"be0334a","0WEZ02 - MOL-WEZEL",51.193832,5.220764,45,"belgium","BE","background","rural",1997-01-01 00:00:00,1997-12-31 00:00:00,NA,NA,NA,682,"airbase"
"be0413a","0ZEL02 - ZELZATE",51.196594,3.821664,6,"belgium","BE","industrial","suburban",1990-01-01 00:00:00,2001-12-31 00:00:00,NA,NA,NA,12332,"airbase"
"be0427a","0HOB23 - HOBOKEN",51.170555,4.339736,10,"belgium","BE","background","urban",2000-01-01 00:00:00,2001-12-31 00:00:00,NA,NA,NA,2897,"airbase"
"be0428a","0HOB24 - HOBOKEN",51.180525,4.361481,10,"belgium","BE","background","urban",2001-01-01 00:00:00,2001-12-31 00:00:00,NA,NA,NA,1352,"airbase"
"be0443a","5TES12 - TESSENDERLO",51.0639,5.092572,32,"belgium","BE","background","urban",1994-01-01 00:00:00,1999-12-31 00:00:00,NA,NA,NA,2191,"airbase"
"be0455a","5ZEL01 - ZELZATE",51.196594,3.821664,6,"belgium","BE","industrial","suburban",1994-01-01 00:00:00,1999-12-31 00:00:00,NA,NA,NA,2191,"airbase"
"be0456a","5BOR01 - BORGERHOUT",51.210197,4.430547,5,"belgium","BE","traffic","suburban",1997-01-01 00:00:00,1999-12-31 00:00:00,NA,NA,NA,1095,"airbase"
"be0457a","5DOE01 - DOEL",51.31876,4.261364,4,"belgium","BE","industrial","rural",1995-01-01 00:00:00,1999-12-31 00:00:00,NA,NA,NA,1826,"airbase"
"be0458a","5STA03 - STABROEK",51.32819,4.360989,4,"belgium","BE","background","suburban",1994-01-01 00:00:00,1999-12-31 00:00:00,NA,NA,NA,2191,"airbase"
"beb0109","200109 - GELLIK",50.882839,5.617289,70,"belgium","BE","background","suburban",1998-04-10 00:00:00,1999-01-10 00:00:00,NA,NA,NA,264,"airbase"
"beb0202","200202 - LIEGE",50.645675,5.556569,100,"belgium","BE","background","urban",1990-01-01 00:00:00,2010-12-31 00:00:00,NA,NA,NA,9518,"airbase"
"beb0206","200206 - LIEGE",50.614468,5.574861,65,"belgium","BE","background","suburban",1990-01-01 00:00:00,2012-12-31 00:00:00,NA,NA,NA,10259,"airbase"
"beb0210","200210 - BEYNE HEUS",50.623372,5.650419,230,"belgium","BE","background","suburban",1990-01-01 00:00:00,2010-12-31 00:00:00,NA,NA,NA,9731,"airbase"
"beb0214","200214 - HERSTAL",50.665844,5.630639,70,"belgium","BE","background","urban",1990-01-01 00:00:00,2010-02-17 00:00:00,NA,NA,NA,8565,"airbase"
"beb0218","200218 - SERAING",50.596958,5.510142,125,"belgium","BE","background","urban",1990-01-01 00:00:00,2010-12-22 00:00:00,NA,NA,NA,8891,"airbase"
"beb0225","200225 - STOCKAY.SG",50.581478,5.354158,200,"belgium","BE","background","suburban",1990-01-12 00:00:00,2010-12-31 00:00:00,NA,NA,NA,9437,"airbase"
"beb0226","200226 - ENGIS",50.585742,5.411722,80,"belgium","BE","background","suburban",1990-01-01 00:00:00,2010-08-18 00:00:00,NA,NA,NA,9511,"airbase"
"beb0227","200227 - AWIRS",50.599456,5.406375,90,"belgium","BE","background","suburban",1990-01-01 00:00:00,2010-12-31 00:00:00,NA,NA,NA,9785,"airbase"
"beb0504","200504 - CHARLEROI",50.392594,4.467894,102,"belgium","BE","background","suburban",1990-01-01 00:00:00,2010-12-15 00:00:00,NA,NA,NA,9112,"airbase"
"beb0505","200505 - CHARLEROI",50.398819,4.444703,110,"belgium","BE","background","suburban",1990-01-01 00:00:00,2002-09-17 00:00:00,NA,NA,NA,6534,"airbase"
"beb0506","200506 - M.S.MARCHIE",50.390833,4.403908,130,"belgium","BE","background","suburban",1990-01-01 00:00:00,2010-12-15 00:00:00,NA,NA,NA,9267,"airbase"
"beb0509","200509 - CHARLEROI",50.413022,4.442614,120,"belgium","BE","background","urban",1990-01-01 00:00:00,2010-12-15 00:00:00,NA,NA,NA,8990,"airbase"
"beb0514","200514 - JUMET",50.443233,4.432106,165,"belgium","BE","background","suburban",1990-01-01 00:00:00,2010-12-15 00:00:00,NA,NA,NA,9174,"airbase"
"beb0520","200520 - PERUWELZ",50.508439,3.589567,30,"belgium","BE","background","suburban",1990-01-01 00:00:00,2010-12-29 00:00:00,NA,NA,NA,10034,"airbase"
"beb0522","200522 - MONS",50.465617,3.93775,45,"belgium","BE","background","urban",1990-01-01 00:00:00,2010-12-29 00:00:00,NA,NA,NA,9951,"airbase"
"beb0531","200531 - TOURNAI",50.612465,3.377411,30,"belgium","BE","traffic","urban",1990-01-01 00:00:00,2009-03-25 00:00:00,NA,NA,NA,8563,"airbase"
"beb0605","200605 - BRUGGE",51.221436,3.225331,8,"belgium","BE","background","urban",1999-01-01 00:00:00,2000-12-11 00:00:00,NA,NA,NA,689,"airbase"
"beb0701","200701 - GENTBRUGGE",51.040745,3.760817,8,"belgium","BE","background","suburban",1997-01-01 00:00:00,1997-12-28 00:00:00,NA,NA,NA,691,"airbase"
"beb0702","200702 - ST.AMANDSBE",51.06135,3.747,8,"belgium","BE","background","suburban",1997-01-01 00:00:00,1997-12-28 00:00:00,NA,NA,NA,704,"airbase"
"beb0706","200706 - GENT",51.017246,3.735897,8,"belgium","BE","background","suburban",1997-01-01 00:00:00,1997-03-27 00:00:00,NA,NA,NA,172,"airbase"
"beb0709","200709 - GENT",51.051742,3.731725,8,"belgium","BE","background","urban",1997-01-01 00:00:00,1997-12-28 00:00:00,NA,NA,NA,704,"airbase"
"beb0712","200712 - GENT",51.059242,3.690686,8,"belgium","BE","background","urban",1997-01-01 00:00:00,1997-12-28 00:00:00,NA,NA,NA,649,"airbase"
"beb0725","200725 - BEVEREN",51.212528,4.257297,10,"belgium","BE","background","urban",1997-01-01 00:00:00,1997-12-30 00:00:00,NA,NA,NA,714,"airbase"
"beb0726","200726 - ST.NIKLAAS",51.164749,4.140072,12,"belgium","BE","background","urban",1997-01-01 00:00:00,1997-12-30 00:00:00,NA,NA,NA,699,"airbase"
"beb0730","200730 - ZELZATE",51.196594,3.821664,6,"belgium","BE","industrial","suburban",1998-04-01 00:00:00,2002-12-31 00:00:00,NA,NA,NA,1690,"airbase"
"beb0800","200800 - ANTWERPEN",51.210197,4.430547,5,"belgium","BE","background","suburban",1998-04-07 00:00:00,2002-12-31 00:00:00,NA,NA,NA,1716,"airbase"
"beb0804","200804 - MORTSEL",51.172617,4.447842,5,"belgium","BE","background","urban",1997-01-01 00:00:00,1997-12-30 00:00:00,NA,NA,NA,694,"airbase"
"beb0807","200807 - DEURNE",51.189064,4.450158,10,"belgium","BE","background","suburban",1997-01-01 00:00:00,1997-12-23 00:00:00,NA,NA,NA,712,"airbase"
"beb0809","200809 - ANTWERPEN",51.216766,4.414714,10,"belgium","BE","background","urban",1997-01-01 00:00:00,1997-12-30 00:00:00,NA,NA,NA,728,"airbase"
"beb0812","200812 - ANTWERPEN",51.225494,4.376361,10,"belgium","BE","industrial","urban",1997-01-01 00:00:00,1997-12-30 00:00:00,NA,NA,NA,714,"airbase"
"beb0813","200813 - ANTWERPEN",51.221897,4.39783,10,"belgium","BE","background","urban",1997-01-01 00:00:00,1997-12-30 00:00:00,NA,NA,NA,728,"airbase"
"beb0817","200817 - MERKSEM",51.247669,4.448542,10,"belgium","BE","background","suburban",1997-01-01 00:00:00,1997-12-29 00:00:00,NA,NA,NA,722,"airbase"
"beb0818","200818 - ANTWERPEN",51.264053,4.381525,10,"belgium","BE","industrial","urban",1997-01-01 00:00:00,1997-12-29 00:00:00,NA,NA,NA,719,"airbase"
"beb0821","200821 - HOEVENEN",51.306831,4.404339,10,"belgium","BE","background","rural",1997-01-01 00:00:00,1997-12-29 00:00:00,NA,NA,NA,678,"airbase"
"beb0825","200825 - ZANDVLIET",51.360836,4.306186,4,"belgium","BE","industrial","urban",1997-01-01 00:00:00,1997-12-29 00:00:00,NA,NA,NA,726,"airbase"
"beb0826","200826 - ANTWERPEN",51.276451,4.330517,10,"belgium","BE","industrial","suburban",1997-01-01 00:00:00,1997-12-29 00:00:00,NA,NA,NA,656,"airbase"
"beb0829","200829 - RUMST",51.077353,4.424275,8,"belgium","BE","background","rural",1997-01-01 00:00:00,1997-12-30 00:00:00,NA,NA,NA,727,"airbase"
"beb0831","200831 - OOSTMALLE",51.301506,4.733811,20,"belgium","BE","background","rural",1997-01-01 00:00:00,1997-12-29 00:00:00,NA,NA,NA,726,"airbase"
"beb0832","200832 - TURNHOUT",51.324028,4.945572,25,"belgium","BE","background","urban",1997-01-01 00:00:00,1997-12-29 00:00:00,NA,NA,NA,711,"airbase"
"beb0834","200834 - HEIST.O.D.B",51.076633,4.728197,12,"belgium","BE","background","rural",1997-01-01 00:00:00,1997-12-30 00:00:00,NA,NA,NA,728,"airbase"
"beb0839","200839 - BRASCHAAT",51.336147,4.500208,10,"belgium","BE","background","rural",1997-01-01 00:00:00,1997-12-29 00:00:00,NA,NA,NA,698,"airbase"
"beb0842","200842 - ANTWERPEN",51.26482,4.340008,6,"belgium","BE","industrial","suburban",1998-04-07 00:00:00,2000-12-31 00:00:00,NA,NA,NA,987,"airbase"
"beb0843","200843 - RUISBROEK",51.081024,4.352316,10,"belgium","BE","industrial","suburban",1998-04-07 00:00:00,2002-12-31 00:00:00,NA,NA,NA,1672,"airbase"
"beb0901","200901 - CHARLEROI",50.409874,4.450911,115,"belgium","BE","traffic","urban",1996-02-01 00:00:00,2012-12-31 00:00:00,NA,NA,NA,5695,"airbase"
"beb0923","200923 - JEMEPPE",50.621227,5.515111,50,"belgium","BE","background","suburban",1995-02-09 00:00:00,1999-08-08 00:00:00,NA,NA,NA,1515,"airbase"
"beb0940","200940 - ENGIS",50.584167,5.396155,135,"belgium","BE","background","urban",1995-01-13 00:00:00,2012-12-31 00:00:00,NA,NA,NA,5940,"airbase"
"bebb004","2FB004 - STE.CATHERI",50.851353,4.347322,15,"belgium","BE","background","urban",2004-01-01 00:00:00,2006-02-15 00:00:00,NA,NA,NA,671,"airbase"
"bebb011","2FB011 - BERCHEM S.A",50.858574,4.287072,30,"belgium","BE","background","suburban",1994-12-08 00:00:00,2000-07-31 00:00:00,NA,NA,NA,1872,"airbase"
"bebb104","21B004 - STE.CATHERI",50.851353,4.347322,15,"belgium","BE","background","urban",2008-04-03 00:00:00,2012-12-31 00:00:00,NA,NA,NA,1692,"airbase"
"bebfr10","2FR100 - BRUXELLES",50.846977,4.34917,20,"belgium","BE","background","urban",1996-01-23 00:00:00,2002-12-30 00:00:00,NA,NA,NA,2149,"airbase"
"bebhr01","20HR01 - HERNE",50.727547,4.0148,40,"belgium","BE","background","rural",2002-01-01 00:00:00,2008-12-31 00:00:00,NA,NA,NA,2500,"airbase"
"bebmeu1","21MEU1 - MEUDON",50.895645,4.39145,50,"belgium","BE","background","suburban",2008-01-01 00:00:00,2012-12-31 00:00:00,NA,NA,NA,1367,"airbase"
"bebml01","20ML01 - MECHELEN",51.016525,4.461097,12,"belgium","BE","traffic","urban",2002-01-01 00:00:00,2012-12-12 00:00:00,NA,NA,NA,3860,"airbase"
"bebn029","24N029 - HOUTEM",51.016811,2.581105,2,"belgium","BE","background","rural",2009-02-11 00:00:00,2012-12-31 00:00:00,NA,NA,NA,1265,"airbase"
"bebn045","22N045 - HASSELT",50.940262,5.367084,41,"belgium","BE","background","suburban",2002-01-01 00:00:00,2012-12-31 00:00:00,NA,NA,NA,3712,"airbase"
"bebr001","2FR001 - MOLENBEEK",50.850208,4.332555,15,"belgium","BE","traffic","urban",2008-04-03 00:00:00,2012-12-31 00:00:00,NA,NA,NA,1614,"airbase"
"bebr002","21R002 - IXELLES",50.825672,4.383452,70,"belgium","BE","traffic","suburban",1994-04-01 00:00:00,2012-12-19 00:00:00,NA,NA,NA,4886,"airbase"
"bebr012","2FR012 - UCCLE",50.797178,4.357275,100,"belgium","BE","background","suburban",2001-03-07 00:00:00,2012-12-31 00:00:00,NA,NA,NA,3383,"airbase"
"bebr112","21R012 - IRM-KMI",50.797178,4.357275,100,"belgium","BE","background","suburban",2008-01-07 00:00:00,2012-12-31 00:00:00,NA,NA,NA,1762,"airbase"
"bebr701","24R701 - GENT",51.058865,3.728047,8,"belgium","BE","background","urban",2010-02-08 00:00:00,2012-12-31 00:00:00,NA,NA,NA,1035,"airbase"
"bebr750","24R750 - ZELZATE",51.196594,3.821664,6,"belgium","BE","industrial","suburban",2002-01-01 00:00:00,2012-12-31 00:00:00,NA,NA,NA,3894,"airbase"
"bebr801","22R801 - BORGERHOUT",51.210197,4.430547,6,"belgium","BE","traffic","urban",2002-01-01 00:00:00,2012-12-31 00:00:00,NA,NA,NA,3648,"airbase"
"bebsz01","20SZ01 - STEENOKKER",50.915119,4.502914,10,"belgium","BE","traffic","suburban",2002-01-01 00:00:00,2009-12-31 00:00:00,NA,NA,NA,2814,"airbase"
"beddd02","65DDD02 - DUDZELE",51.2663806690398,3.22162986707154,0,"belgium","BE","background","rural",2016-09-15 23:00:00,2017-09-14 23:00:00,"NET-Flanders","STA-BEDDD02","BEDDD02",195,"aqer:e1a"
"bedeg05","65EG05 - RIEME",51.1740626870589,3.78605594336761,0,"belgium","BE","background","urban",2019-01-02 23:00:00,2019-11-07 23:00:00,"NET-Flanders","STA-BEDEG05","BEDEG05",179,"aqer:e1a"
"bedgi04","65GI04 - GRIMBERGEN",50.9352175806052,4.40224182993334,0,"belgium","BE","background","suburban",2016-09-15 23:00:00,2019-11-07 23:00:00,"NET-Flanders","STA-BEDGI04","BEDGI04",581,"aqer:e1a"
"bedgi05","65GI05 - GRIMBERGEN",50.9481560893285,4.4189146465708,0,"belgium","BE","background","suburban",2016-09-15 23:00:00,2017-08-17 23:00:00,"NET-Flanders","STA-BEDGI05","BEDGI05",174,"aqer:e1a"
"bedgn78","65GN78 - GENT",51.0856882009873,3.72641256121658,0,"belgium","BE","background","urban",2016-09-15 23:00:00,2019-11-07 23:00:00,"NET-Flanders","STA-BEDGN78","BEDGN78",580,"aqer:e1a"
"bedhb17","65HB17 - HOBOKEN",51.1702972764392,4.33785955680854,0,"belgium","BE","background","urban",2016-09-15 23:00:00,2017-08-17 23:00:00,"NET-Flanders","STA-BEDHB17","BEDHB17",180,"aqer:e1a"
"bedhz02","65HZ02 - HEUZDEN-ZOLDER",50.9943194793006,5.2476908128899,0,"belgium","BE","industrial","suburban",2016-09-15 23:00:00,2017-08-17 23:00:00,"NET-Flanders","STA-BEDHZ02","BEDHZ02",180,"aqer:e1a"
"bedn029","65N029 - HOUTEM",51.0162801115352,2.58232278148975,0,"belgium","BE","background","rural",2016-01-04 23:00:00,2019-11-07 23:00:00,"NET-Flanders","STA-BEDN029","BEDN029",704,"aqer:e1a"
"bedne02","65NE02 - NIEL",51.0989714184752,4.33530740764577,0,"belgium","BE","background","rural",2016-09-15 23:00:00,2017-08-17 23:00:00,"NET-Flanders","STA-BEDNE02","BEDNE02",168,"aqer:e1a"
"bedr750","65R750 - ZELZATE",51.1960632688959,3.82292004680433,0,"belgium","BE","industrial","suburban",2016-01-04 23:00:00,2019-11-07 23:00:00,"NET-Flanders","STA-BEDR750","BEDR750",707,"aqer:e1a"
"bedr802","65R802 - BORGERHOUT",51.2094379055403,4.43166333243652,0,"belgium","BE","background","urban",2016-01-04 23:00:00,2019-11-07 23:00:00,"NET-Flanders","STA-BEDR802","BEDR802",707,"aqer:e1a"
"bedzl06","65ZL06 - ZELZATE",51.2086740250045,3.81126747130857,0,"belgium","BE","industrial","suburban",2016-09-15 23:00:00,2019-11-07 23:00:00,"NET-Flanders","STA-BEDZL06","BEDZL06",565,"aqer:e1a"
"begab02","90AB02 - BERENDRECHT",51.341259,4.320547,10,"belgium","BE","background","suburban",2010-02-08 00:00:00,2011-02-05 00:00:00,NA,NA,NA,1088,"airbase"
"begbb15","26BB15 - BRUGGE",51.2134632158996,3.23406610187119,5,"belgium","BE","background","urban",2009-01-30 00:00:00,2019-12-30 23:00:00,"NET-Flanders","STA-BEGBB15","BEGBB15",3536,"airbase; aqer:e1a"
"begm802","90M802 - ANTWERPEN",51.261524,4.423125,5,"belgium","BE","industrial","urban",2010-02-09 00:00:00,2011-02-05 00:00:00,NA,NA,NA,1084,"airbase"
"begml01","90ML01 - MECHELEN",51.016525,4.461097,12,"belgium","BE","traffic","urban",2010-02-08 00:00:00,2011-02-05 00:00:00,NA,NA,NA,1040,"airbase"
"begr701","26R701 - GENT",51.0583317166618,3.72929817169059,5,"belgium","BE","background","urban",2009-01-01 00:00:00,2019-12-30 23:00:00,"NET-Flanders","STA-BEGR701","BEGR701",6254,"airbase; aqer:e1a"
"begr801","26R801 - BORGERHOUT",51.2096625313066,4.43182104696884,6,"belgium","BE","background","urban",2009-01-01 00:00:00,2019-12-30 23:00:00,"NET-Flanders","STA-BEGR801","BEGR801",6240,"airbase; aqer:e1a"
"begr811","26R811 - SCHOTEN",51.2521034122412,4.49136202793544,8,"belgium","BE","background","suburban",2009-01-01 00:00:00,2019-12-30 23:00:00,"NET-Flanders","STA-BEGR811","BEGR811",3586,"airbase; aqer:e1a"
"begrt01","26RT01 - RETIE",51.2308576111195,5.05330329126734,23,"belgium","BE","background","rural",2009-01-01 00:00:00,2019-12-30 23:00:00,"NET-Flanders","STA-BEGRT01","BEGRT01",6597,"airbase; aqer:e1a"
"belab01","40AB01 - ANTWERPEN",51.281544,4.328578,10,"belgium","BE","background","suburban",2004-01-10 00:00:00,2012-12-31 23:00:00,NA,NA,NA,62691,"airbase"
"belab02","40AB02 - BERENDRECHT",51.340727492302,4.32182021475228,10,"belgium","BE","background","suburban",2005-01-12 00:00:00,2017-03-13 10:00:00,"NET-Flanders","STA-BELAB02","BELAB02",127230,"airbase; aqer:e1a"
"belal01","40AL01 - LINKEROEVER",51.236194200299,4.38522368445472,10,"belgium","BE","industrial","suburban",2004-01-01 00:00:00,2022-06-14 00:00:00,"NET-Flanders","STA-BELAL01","BELAL01",298590,"airbase; aqer:e1a; aqer:e2a"
"belal02","40AL02 - BEVEREN",51.3045207907405,4.23483275314406,4,"belgium","BE","industrial","rural",2008-06-19 00:00:00,2022-06-14 00:00:00,"NET-Flanders","STA-BELAL02","BELAL02",110045,"airbase; aqer:e1a; aqer:e2a"
"belal03","40AL03 - BEVEREN",51.2539648810663,4.20146039512657,4,"belgium","BE","industrial","rural",2008-06-13 00:00:00,2022-06-14 01:00:00,"NET-Flanders","STA-BELAL03","BELAL03",157393,"airbase; aqer:e1a; aqer:e2a"
"belal04","40AL04 - BEVEREN",51.291199,4.292058,8,"belgium","BE","industrial","suburban",2008-06-19 00:00:00,2022-06-14 00:00:00,NA,NA,NA,81150,"airbase; aqer:e2a"
"belal05","40AL05 - BEVEREN",51.2631177172701,4.27888982166783,8,"belgium","BE","industrial","rural",2008-06-17 00:00:00,2022-06-14 00:00:00,"NET-Flanders","STA-BELAL05","BELAL05",128054,"airbase; aqer:e1a; aqer:e2a"
"belbe06","40BE06 - BEERSE",51.3289029167454,4.81937173138705,30,"belgium","BE","industrial","suburban",2003-01-01 00:00:00,2014-01-28 11:00:00,"NET-Flanders","STA-BELBE06","BELBE06",103667,"airbase; aqer:e1a"
"beleg05",NA,51.1740538391663,3.78608465239654,0,"belgium","BE","industrial","suburban",2022-04-25 00:00:00,2022-06-14 00:00:00,"NET-Flanders","STA-BELEG05","BELEG05",2400,"aqer:e2a"
"belgk06","40GK06 - GENK",50.9278918436631,5.47062003748762,44,"belgium","BE","industrial","suburban",2008-07-09 00:00:00,2019-02-11 12:00:00,"NET-Flanders","STA-BELGK06","BELGK06",139557,"airbase; aqer:e1a"
"belgk09","40GK09 - GENK",50.935181,5.491489,61,"belgium","BE","industrial","urban",2008-01-01 00:00:00,2022-06-13 23:00:00,NA,NA,NA,332838,"airbase; aqer:e2a"
"belhb23","40HB23 - HOBOKEN",51.1702980388321,4.34100506456284,13,"belgium","BE","industrial","suburban",2004-01-01 00:00:00,2022-06-14 01:00:00,"NET-Flanders","STA-BELHB23","BELHB23",672189,"airbase; aqer:e1a; aqer:e2a"
"belhh08","40HH08 - HOUTHALEN-HELCHTEREN",51.0315839312375,5.37637204299106,0,"belgium","BE","background","urban",2019-03-06 00:00:00,2022-06-14 00:00:00,"NET-Flanders","STA-BELHH08","BELHH08",56964,"aqer:e1a; aqer:e2a"
"belhr01","40HR01 - HERNE",50.727547,4.0148,40,"belgium","BE","background","rural",1998-05-20 00:00:00,2006-12-31 23:00:00,NA,NA,NA,106793,"airbase"
"belko01","40KO01 - KORTRIJK",50.831169,3.272517,10,"belgium","BE","background","urban",2003-03-21 00:00:00,2005-06-27 00:00:00,NA,NA,NA,1472,"airbase"
"belld01","40LD01 - LAAKDAL",51.1099761208639,5.00486439358777,20,"belgium","BE","industrial","rural",2003-01-01 00:00:00,2019-01-29 13:00:00,"NET-Flanders","STA-BELLD01","BELLD01",471634,"airbase; aqer:e1a"
"belld02","40LD02 - LAAKDAL",51.1203841374963,5.02154597760984,22,"belgium","BE","industrial","rural",2003-01-01 00:00:00,2022-06-14 00:00:00,"NET-Flanders","STA-BELLD02","BELLD02",527172,"airbase; aqer:e1a; aqer:e2a"
"bellm05","40LM05 - LOMMEL",51.2151470329576,5.25811076172165,2,"belgium","BE","industrial","rural",2015-01-29 12:00:00,2019-12-31 22:00:00,"NET-Flanders","STA-BELLM05","BELLM05",40278,"aqer:e1a"
"belml01","40ML01 - MECHELEN",51.016525,4.461097,12,"belgium","BE","traffic","urban",2000-04-01 00:00:00,2012-12-13 23:00:00,NA,NA,NA,351587,"airbase"
"belml02","40ML02 - MECHELEN",51.032616,4.502483,12,"belgium","BE","background","suburban",2003-01-01 00:00:00,2004-12-31 00:00:00,NA,NA,NA,724,"airbase"
"belmn01","40MN01 - MENEN",50.7934690447113,3.10964187449867,10,"belgium","BE","industrial","rural",2003-02-06 00:00:00,2022-06-14 00:00:00,"NET-Flanders","STA-BELMN01","BELMN01",210894,"airbase; aqer:e1a; aqer:e2a"
"belob01","40OB01 - OOSTROZEBEK",50.9172284414243,3.30738579933576,44,"belgium","BE","industrial","rural",1995-01-01 00:00:00,2022-06-14 00:00:00,"NET-Flanders","STA-BELOB01","BELOB01",609365,"airbase; aqer:e1a; aqer:e2a"
"belob02","40OB02 - WIELSBEKE",50.9149529612786,3.37621163108602,14,"belgium","BE","industrial","rural",2012-04-24 00:00:00,2022-06-14 00:00:00,"NET-Flanders","STA-BELOB02","BELOB02",159974,"airbase; aqer:e1a; aqer:e2a"
"belr801","40R801 - BORGERHOUT",51.210197,4.430547,5,"belgium","BE","background","urban",2010-01-01 00:00:00,2010-12-31 23:00:00,NA,NA,NA,9008,"airbase"
"belr833","40R833 - STABROEK",51.3276588718917,4.36226059320037,5,"belgium","BE","industrial","rural",2013-01-01 00:00:00,2021-01-13 09:00:00,"NET-Flanders","STA-BELR833","BELR833",143355,"aqer:e1a; aqer:e2a"
"belrb01","40RB01 - RUISBROEK",51.089397131683,4.33123202731084,0,"belgium","BE","industrial","suburban",2016-11-29 16:00:00,2018-02-15 06:00:00,"NET-Flanders","STA-BELRB01","BELRB01",21132,"aqer:e1a"
"belrl01","40RL01 - ROESELARE",50.953177280636,3.12115559890125,20,"belgium","BE","background","urban",2005-06-27 00:00:00,2022-06-14 00:00:00,"NET-Flanders","STA-BELRL01","BELRL01",216934,"airbase; aqer:e1a; aqer:e2a"
"belsa04","40SA04 - Hoevenen",51.3139288945411,4.40386813974961,6,"belgium","BE","industrial","rural",2012-07-02 00:00:00,2022-06-14 00:00:00,"NET-Flanders","STA-BELSA04","BELSA04",213827,"airbase; aqer:e1a; aqer:e2a"
"belsz01","40SZ01 - STEENOKKERZ",50.915119,4.502914,15,"belgium","BE","traffic","suburban",2003-01-01 00:00:00,2022-06-14 00:00:00,NA,NA,NA,366990,"airbase; aqer:e2a"
"belsz02","40SZ02 - STEENOKKERZ",50.9130204234224,4.51218434619029,15,"belgium","BE","industrial","rural",1997-01-01 00:00:00,2020-12-28 06:00:00,"NET-Flanders","STA-BELSZ02","BELSZ02",611171,"airbase; aqer:e1a; aqer:e2a"
"beltr01","40TR01 - TEMSE",51.119087,4.169944,30,"belgium","BE","background","suburban",1997-03-28 00:00:00,2003-12-31 23:00:00,NA,NA,NA,10808,"airbase"
"belts06","40TS06 - TESSENDERLO",51.09301,5.164267,32,"belgium","BE","background","suburban",2003-01-01 00:00:00,2006-12-01 09:00:00,NA,NA,NA,33752,"airbase"
"belts07","40TS07 - TESSENDERLO",51.069698,5.108083,25,"belgium","BE","industrial","suburban",2003-01-01 00:00:00,2009-01-21 11:00:00,NA,NA,NA,57013,"airbase"
"belts12","40TS12 - TESSENDERLO",51.0633561248262,5.09386114807259,32,"belgium","BE","industrial","suburban",2007-01-01 00:00:00,2019-12-31 22:00:00,"NET-Flanders","STA-BELTS12","BELTS12",202708,"airbase; aqer:e1a"
"belts20","40TS20 - TESSENDERLO",51.066246,5.106247,28,"belgium","BE","industrial","suburban",2009-01-23 00:00:00,2009-12-31 23:00:00,NA,NA,NA,8196,"airbase"
"belts21","40TS21 - TESSENDERLO",51.066246,5.106247,28,"belgium","BE","industrial","suburban",2010-04-01 00:00:00,2012-12-31 23:00:00,NA,NA,NA,23490,"airbase"
"belwz01","40WZ01 - LOMMEL",51.206871,5.242222,45,"belgium","BE","industrial","suburban",1995-07-20 00:00:00,2009-02-27 11:00:00,NA,NA,NA,84466,"airbase"
"belwz02","40WZ02 - MOL",51.1928003335933,5.22153407909309,40,"belgium","BE","industrial","rural",2003-01-01 00:00:00,2022-06-14 00:00:00,"NET-Flanders","STA-BELWZ02","BELWZ02",174253,"airbase; aqer:e1a; aqer:e2a"
"belzd01","40ZD01 - ZWIJNDRECHT",51.216034,4.324653,12,"belgium","BE","industrial","suburban",2006-06-08 00:00:00,2008-01-29 10:00:00,NA,NA,NA,14183,"airbase"
"belzl01","40ZL01 - ZELZATE",51.2031414264689,3.80840032395166,6,"belgium","BE","industrial","suburban",2003-01-01 00:00:00,2022-06-13 23:00:00,"NET-Flanders","STA-BELZL01","BELZL01",224578,"airbase; aqer:e1a; aqer:e2a"
"bem5k01","05KK01 - KOKSIJDE",51.1209194229239,2.65854278952871,6,"belgium","BE","background","suburban",2010-01-05 00:00:00,2019-01-01 00:00:00,"NET-Flanders","STA-BEM5K01","BEM5K01",61,"airbase; aqer:e1a"
"bemand1","0AND01 - ANDENNE",50.4971858597194,5.0420245718817,90,"belgium","BE","industrial","suburban",2006-01-01 00:00:00,2019-12-31 00:00:00,"NET-Wallonia","STA-BEMAND1","BEMAND1",15282,"airbase; aqer:e1a"
"bemand2","01AND2 - ANDERLECHT",50.823971,4.314706,20,"belgium","BE","background","suburban",1999-01-01 00:00:00,2003-12-31 00:00:00,NA,NA,NA,1826,"airbase"
"bemand3","01AND3 - ANDERLECHT",50.8199823863568,4.31154682997583,20,"belgium","BE","background","suburban",2001-01-01 00:00:00,2019-12-10 23:00:00,"NET-Brussels","STA-BEMAND3","BEMAND3",25289,"airbase; aqer:e1a"
"bemand4","01AND4 - ANDERLECHT",50.827854,4.306172,15,"belgium","BE","background","urban",2006-01-01 00:00:00,2006-12-31 00:00:00,NA,NA,NA,365,"airbase"
"bemang1","0ANG01 - ANGLEUR",50.612481,5.609853,65,"belgium","BE","industrial","suburban",1990-01-01 00:00:00,2009-12-31 00:00:00,NA,NA,NA,15136,"airbase"
"bemant1","0ANT01 - ANTWERPEN",51.213535,4.400831,10,"belgium","BE","traffic","urban",1990-01-01 00:00:00,2000-12-31 00:00:00,NA,NA,NA,8418,"airbase"
"bemarl1","0ARL01 - ARLON",49.679733,5.818889,408,"belgium","BE","background","suburban",1990-01-01 00:00:00,2009-12-31 00:00:00,NA,NA,NA,6532,"airbase"
"bemat01","00AT01 - ANTWERPEN",51.19762,4.396211,7,"belgium","BE","industrial","urban",2008-01-01 00:00:00,2008-12-31 00:00:00,NA,NA,NA,1464,"airbase"
"bemath1","0ATH01 - ATH",50.6351172527829,3.77522668638518,32,"belgium","BE","industrial","urban",1994-01-01 00:00:00,2019-12-31 00:00:00,"NET-Wallonia","STA-BEMATH1","BEMATH1",28424,"airbase; aqer:e1a"
"bembau1","0BAU01 - BAUDOUR",50.482708,3.835258,45,"belgium","BE","background","suburban",1994-01-01 00:00:00,2009-12-31 00:00:00,NA,NA,NA,6574,"airbase"
"bembe01","00BE01 - BEERSE",51.323969920072,4.82133221210363,29,"belgium","BE","industrial","suburban",1990-01-01 00:00:00,2019-12-30 23:00:00,"NET-Flanders","STA-BEMBE01","BEMBE01",41177,"airbase; aqer:e1a"
"bembe02","00BE02 - BEERSE",51.3320836856809,4.80281659843671,29,"belgium","BE","industrial","suburban",1990-01-01 00:00:00,2019-12-30 23:00:00,"NET-Flanders","STA-BEMBE02","BEMBE02",37086,"airbase; aqer:e1a"
"bembe04","0BEE04 - BEERSE",51.326809,4.822667,30,"belgium","BE","industrial","suburban",1990-01-01 00:00:00,1997-12-31 00:00:00,NA,NA,NA,2192,"airbase"
"bembe06","00BE06 - BEERSE",51.329193,4.817711,32,"belgium","BE","industrial","suburban",2003-01-01 00:00:00,2003-12-31 00:00:00,NA,NA,NA,1403,"airbase"
"bembe07","00BE07 - BEERSE",51.3250559115038,4.82174446985953,35,"belgium","BE","industrial","suburban",2005-01-01 00:00:00,2019-12-30 23:00:00,"NET-Flanders","STA-BEMBE07","BEMBE07",18997,"airbase; aqer:e1a"
"bembe08","00BE08 - BEERSE",51.321281,4.8231,29,"belgium","BE","industrial","suburban",2006-01-01 00:00:00,2011-03-11 00:00:00,NA,NA,NA,6640,"airbase"
"bembe09","00BE09 - BEERSE",51.3269,4.788753,31,"belgium","BE","industrial","suburban",2007-01-01 00:00:00,2008-12-31 00:00:00,NA,NA,NA,1133,"airbase"
"bembe10","00BE10 - BEERSE",51.321556,4.805172,29,"belgium","BE","industrial","suburban",2008-01-01 00:00:00,2008-12-31 00:00:00,NA,NA,NA,1464,"airbase"
"bembe11","00BE11 - BEERSE",51.328675,4.824506,31,"belgium","BE","industrial","suburban",2008-01-01 00:00:00,2008-12-31 00:00:00,NA,NA,NA,1464,"airbase"
"bembe15","00BE15 - BEERSE",51.3221889142151,4.82402601013003,28,"belgium","BE","background","suburban",2011-09-02 00:00:00,2014-11-09 23:00:00,"NET-Flanders","STA-BEMBE15","BEMBE15",2822,"airbase; aqer:e1a"
"bembe16","00BE16 - BEERSE",51.326098126792,4.82419343943832,28,"belgium","BE","background","suburban",2014-06-27 23:00:00,2014-11-09 23:00:00,"NET-Flanders","STA-BEMBE16","BEMBE16",536,"aqer:e1a"
"bembld1","01BLD1 - BELLIARD",50.842121,4.371461,70,"belgium","BE","traffic","urban",1990-01-01 00:00:00,2004-12-31 00:00:00,NA,NA,NA,7670,"airbase"
"bembov1","0BOV01 - GOUVY",50.226486,5.915572,465,"belgium","BE","background","rural",1990-01-01 00:00:00,2009-12-31 00:00:00,NA,NA,NA,6534,"airbase"
"bemcha1","0CHA01 - CHARLEROI",50.4093114524138,4.45217178104986,115,"belgium","BE","background","urban",1990-01-01 00:00:00,2019-12-24 00:00:00,"NET-Wallonia","STA-BEMCHA1","BEMCHA1",17481,"airbase; aqer:e1a"
"bemcha2","0CHA02 - LODELINSART",50.4289953932951,4.45868085802172,135,"belgium","BE","background","suburban",1990-01-01 00:00:00,2019-12-24 00:00:00,"NET-Wallonia","STA-BEMCHA2","BEMCHA2",12794,"airbase; aqer:e1a"
"bemcha6","0CHA06 - CHARLEROI",50.415344,4.423511,112,"belgium","BE","industrial","suburban",1994-01-01 00:00:00,2009-12-31 00:00:00,NA,NA,NA,18005,"airbase"
"bemcha7","0CHA07 - MARCHIENNE",50.408371,4.394636,107,"belgium","BE","background","suburban",1995-01-01 00:00:00,2009-12-31 00:00:00,NA,NA,NA,11230,"airbase"
"bemdes1","0DES01 - DESTELDONK",51.125332,3.778717,5,"belgium","BE","industrial","suburban",1990-01-01 00:00:00,1998-12-31 00:00:00,NA,NA,NA,5030,"airbase"
"bemek03","00EK03 - EKSEL",51.125137,5.363797,65,"belgium","BE","background","rural",2007-01-01 00:00:00,2007-12-31 00:00:00,NA,NA,NA,1343,"airbase"
"bemeks1","0EKS01 - EKSEL",51.150042,5.381464,63,"belgium","BE","background","rural",1990-01-01 00:00:00,1998-12-31 00:00:00,NA,NA,NA,5001,"airbase"
"bemeng1","0ENG01 - ENGIS",50.5836143477672,5.39744605012733,135,"belgium","BE","industrial","suburban",1990-01-01 00:00:00,2019-12-24 00:00:00,"NET-Wallonia","STA-BEMENG1","BEMENG1",10934,"airbase; aqer:e1a"
"bemgen2","0GEN02 - GENT",51.059003,3.728344,5,"belgium","BE","traffic","urban",1990-01-01 00:00:00,1997-12-31 00:00:00,NA,NA,NA,5114,"airbase"
"bemgk02","00GK02 - GENK",50.936466376033,5.51867078397489,75,"belgium","BE","industrial","suburban",1990-01-01 00:00:00,2013-12-30 23:00:00,"NET-Flanders","STA-BEMGK02","BEMGK02",27898,"airbase; aqer:e1a"
"bemgk03","00GK03 - GENK",50.930666615707,5.50770223978059,83,"belgium","BE","industrial","suburban",2006-01-01 00:00:00,2013-12-30 23:00:00,"NET-Flanders","STA-BEMGK03","BEMGK03",11330,"airbase; aqer:e1a"
"bemgk04","00GK04 - GENK",50.93285,5.5168,83,"belgium","BE","industrial","suburban",2006-01-01 00:00:00,2010-06-02 00:00:00,NA,NA,NA,5991,"airbase"
"bemgk05","00GK05 - GENK",50.9404947165244,5.52683768631823,83,"belgium","BE","industrial","suburban",2006-01-01 00:00:00,2019-12-30 23:00:00,"NET-Flanders","STA-BEMGK05","BEMGK05",17850,"airbase; aqer:e1a"
"bemgk06","00GK06 - GENK",50.92844,5.469322,83,"belgium","BE","industrial","suburban",2006-01-01 00:00:00,2008-12-31 00:00:00,NA,NA,NA,2099,"airbase"
"bemgk07","00GK07 - GENK",50.898647,5.501561,83,"belgium","BE","industrial","suburban",2006-01-01 00:00:00,2006-12-31 00:00:00,NA,NA,NA,644,"airbase"
"bemgk08","00GK08 - GENK",50.927971,5.556484,83,"belgium","BE","industrial","suburban",2006-01-01 00:00:00,2006-12-31 00:00:00,NA,NA,NA,578,"airbase"
"bemgk10","00GK10 - GENK",50.922725,5.484492,45,"belgium","BE","industrial","suburban",2008-01-01 00:00:00,2008-12-31 00:00:00,NA,NA,NA,1464,"airbase"
"bemgk11","00GK11 - GENK",50.9316128808155,5.52037278124878,45,"belgium","BE","industrial","suburban",2009-09-01 00:00:00,2019-12-30 23:00:00,"NET-Flanders","STA-BEMGK11","BEMGK11",13902,"airbase; aqer:e1a"
"bemgk12","00GK12 - GENK",50.936443,5.521866,45,"belgium","BE","industrial","suburban",2009-09-01 00:00:00,2012-12-31 00:00:00,NA,NA,NA,1096,"airbase"
"bemgk13","00GK13 - GENK",50.933132,5.530122,45,"belgium","BE","industrial","suburban",2009-09-01 00:00:00,2012-12-31 00:00:00,NA,NA,NA,1100,"airbase"
"bemgn05","00GN05 - GENT",51.0265258927353,3.71587677642565,10,"belgium","BE","background","urban",2003-01-01 00:00:00,2019-12-30 23:00:00,"NET-Flanders","STA-BEMGN05","BEMGN05",22777,"airbase; aqer:e1a"
"bemh201","00H201 - LIEGE",50.6249915692964,5.54746418257081,160,"belgium","BE","background","suburban",2013-09-01 23:00:00,2019-12-24 00:00:00,"NET-Wallonia","STA-BEMH201","BEMH201",1418,"aqer:e1a"
"bemhas1","0HAS01 - HASSELT",50.934479,5.337967,31,"belgium","BE","traffic","urban",1990-01-01 00:00:00,1998-12-31 00:00:00,NA,NA,NA,5844,"airbase"
"bemhb01","00HB01 - HOBOKEN",51.1721494379358,4.33996021329171,10,"belgium","BE","industrial","suburban",1990-01-01 00:00:00,2013-12-30 23:00:00,"NET-Flanders","STA-BEMHB01","BEMHB01",29566,"airbase; aqer:e1a"
"bemhb03","0HOB03 - KRUIBEKE",51.16571,4.308589,8,"belgium","BE","industrial","suburban",1990-01-01 00:00:00,1997-12-31 00:00:00,NA,NA,NA,3287,"airbase"
"bemhb08","0HOB08 - HOBOKEN",51.162089,4.349775,16,"belgium","BE","industrial","suburban",1998-01-01 00:00:00,2002-12-31 00:00:00,NA,NA,NA,5144,"airbase"
"bemhb14","0HOB14 - HOBOKEN",51.172211,4.338878,10,"belgium","BE","industrial","suburban",1990-01-01 00:00:00,1999-12-31 00:00:00,NA,NA,NA,12783,"airbase"
"bemhb16","0HOB16 - HOBOKEN",51.170555,4.336547,10,"belgium","BE","industrial","suburban",1990-01-01 00:00:00,1997-12-31 00:00:00,NA,NA,NA,9548,"airbase"
"bemhb17","00HB17 - HOBOKEN",51.1702972764392,4.33785955680854,10,"belgium","BE","industrial","suburban",1997-01-01 00:00:00,2019-12-30 23:00:00,"NET-Flanders","STA-BEMHB17","BEMHB17",31565,"airbase; aqer:e1a"
"bemhb18","00HB18 - HOBOKEN",51.1738761563489,4.34412014225449,10,"belgium","BE","industrial","suburban",1990-01-01 00:00:00,2019-12-30 23:00:00,"NET-Flanders","STA-BEMHB18","BEMHB18",34882,"airbase; aqer:e1a"
"bemhb19","00HB19 - HOBOKEN",51.168419,4.345442,16,"belgium","BE","industrial","suburban",1990-01-01 00:00:00,2008-12-31 00:00:00,NA,NA,NA,18618,"airbase"
"bemhb20","00HB20 - KRUIBEKE",51.167362,4.323825,8,"belgium","BE","industrial","suburban",1990-01-01 00:00:00,2005-12-31 00:00:00,NA,NA,NA,9432,"airbase"
"bemhb22","0HOB22 - KRUIBEKE",51.171192,4.312297,8,"belgium","BE","industrial","suburban",1997-01-01 00:00:00,1999-12-31 00:00:00,NA,NA,NA,2285,"airbase"
"bemhb23","0HOB23 - HOBOKEN",51.1702980388321,4.34100506456284,10,"belgium","BE","background","urban",2000-08-24 00:00:00,2019-12-30 23:00:00,"NET-Flanders","STA-BEMHB23","BEMHB23",25991,"airbase; aqer:e1a"
"bemhb24","0HOB24 - HOBOKEN",51.180525,4.361481,10,"belgium","BE","industrial","suburban",2003-01-01 00:00:00,2009-03-10 00:00:00,NA,NA,NA,7769,"airbase"
"bemhb25","00HB25 - HOBOKEN",51.161774,4.355208,20,"belgium","BE","industrial","suburban",2008-01-01 00:00:00,2008-12-31 00:00:00,NA,NA,NA,1464,"airbase"
"bemhb26","00HB26 - KRUIBEKE",51.163578,4.309964,2,"belgium","BE","industrial","suburban",2008-01-01 00:00:00,2008-12-31 00:00:00,NA,NA,NA,1464,"airbase"
"bemhr01","00HR01 - HERNE",50.72644,4.014981,40,"belgium","BE","background","rural",1998-01-01 00:00:00,1999-12-31 00:00:00,NA,NA,NA,2551,"airbase"
"bemihe2","0IHE02 - IHE",50.825047,4.381394,90,"belgium","BE","background","suburban",1990-01-01 00:00:00,2000-12-31 00:00:00,NA,NA,NA,5479,"airbase"
"bemihe3","0IHE03 - COURONNE",50.8253077145244,4.38436408347933,90,"belgium","BE","background","suburban",1990-01-01 00:00:00,2018-12-15 23:00:00,"NET-Brussels","STA-BEMIHE3","BEMIHE3",10843,"airbase; aqer:e1a"
"bemjmp1","0JMP01 - JEMEPPE",50.6206708792376,5.51640475514299,80,"belgium","BE","industrial","suburban",1998-01-01 00:00:00,2019-12-24 00:00:00,"NET-Wallonia","STA-BEMJMP1","BEMJMP1",11126,"airbase; aqer:e1a"
"bemkk01","00KK01 - KOKSIJDE",51.1209194229239,2.65854278952871,6,"belgium","BE","background","rural",2009-12-29 00:00:00,2019-12-30 23:00:00,"NET-Flanders","STA-BEMKK01","BEMKK01",10190,"airbase; aqer:e1a"
"bemkk02","00KK02 - KOKSIJDE",51.121445,2.657322,6,"belgium","BE","background","rural",2006-01-01 00:00:00,2011-12-31 00:00:00,NA,NA,NA,10478,"airbase"
"bemkn02","00KN02 - KNOKKE",51.360806,3.344217,6,"belgium","BE","background","rural",1997-05-16 00:00:00,2004-12-31 00:00:00,NA,NA,NA,4691,"airbase"
"bemkno1","0KNO01 - KNOKKE",51.360806,3.344217,5,"belgium","BE","background","rural",1997-01-01 00:00:00,2001-12-31 00:00:00,NA,NA,NA,6118,"airbase"
"bemlie1","0LIE01 - LIEGE",50.636974,5.570317,65,"belgium","BE","traffic","urban",1990-01-01 00:00:00,2008-12-31 00:00:00,NA,NA,NA,18965,"airbase"
